~VERSION INFORMATION
 VERS.                 2.0:   CWLS LOG ASCII STANDARD - VERSION 2.0
 WRAP.                  NO:   SINGLE LINE PER DEPTH STEP
 CREA.                 2/17/2020 5:24:17 PM
#CREATED USING DSPetro VERSION 10ep.4.04 BY HB79161 ON 2/17/2020 5:24:17 PM
~WELL INFORMATION
#MNEM.UNIT       DATA                          DESCRIPTION MNEMONIC
#---------      ---------------------------   --------------------------
 STRT    .FT        9000.0000                 : START DEPTH
 STOP    .FT        10370.0000                : STOP DEPTH
 STEP    .FT        0.5000                    : STEP VALUE
 NULL    .      -999.0000                     : NULL VALUE
 DATE    .      2/17/2020                     : LAS file Creation Date
 WELL   .      LGAE-040                       : Well Name
 COMP   .      PETROPRODUCCION                : Company
 FLD    .      LAGO AGRIO                     : Field
 STATE  .      SUCUMBIOS                      : State
 COUNT  .      ECUADOR                        : Country
 UWI    .      LGAE-040                       : Unique Well Identifier (UWI)
 LOC    .      TWP        - Range       - Sec : Location
 PDAT   .      GR                             : Permanent Datum
 LGMEA  .      KB                             : Log Measured from
 DRMEA  .      KB                             : Drill Measured From
 KB     .      987                            : KB Elevation
 DF     .      -999.2500                      : DF Elevation
 GL     .      -999.2500                      : GL Elevation
 RWS    .      0                              : Def_Rw
 WST    .      0                              : Def_Rwt
 UTMZ   .      31                             : UTM Zone
 CNTY   .      LA                             : County
 PROV   .      SUCUMBIOS                      : Province
 MDEC   .      0                              : Magnetic Declination
 SRVC   .      SCH                            : Contractor
 GDAT   .      WGS 84                         : Geodatum
 LONG   .      0                              : Longitude
 LATI   .      0                              : Latitude
 COORDIN.                                     : Grid System
 XCOORD .                                     : X or East-West Coordinate
 YCOORD .                                     : Y or North-South Coordinate
~CURVE INFORMATION
#MNEM              UNIT       API CODE   Curve Type Comments
#----------  --------------- ----------  ---------- -----------
 DEPTH      .FT                        : Depth       
 BS         .inches                    : BitSize     Bit Size
 CAL        .inches                    : Caliper     
 CALI       .inch                      : Caliper     Caliper
 CALX       .inch                      : Caliper     
 DT         .us/ft                     : Sonic       
 GR         .API                       : GammaRay    GR = 0.995958 x GR + -0.122242
 M1R1       .ohm.m                     : ShalRes     
 M1R3       .ohm.m                     : MedRes      
 M1R9       .ohm.m                     : MedRes      
 M2R1       .ohm.m                     : ShalRes     
 M2R3       .ohm.m                     : MedRes      
 M2R9       .ohm.m                     : MedRes      
 NPHI       .v/v                       : Neutron     
 RHOB       .gm/cc                     : Density     Bulk Density
 RM         .ohm.m                     :             
 RS         .ohm.m                     : ShalRes     
 RT         .ohm.m                     : DeepRes     Resistivity
 SP         .mV                        : SP          Spontaneous Potential
~A  DEPTH     BS       CAL       CALI      CALX       DT        GR       M1R1      M1R3      M1R9      M2R1      M2R3      M2R9      NPHI      RHOB       RM        RS        RT        SP    
# ...
9651.0000    8.5000 -999.0000 -999.0000 -999.0000   61.5537  204.3886 -999.0000 -999.0000 -999.0000   22.4320   32.1390   29.3990    0.1596    2.5940   32.1390   22.4320   29.3990 -999.0000 
9651.5000    8.5000 -999.0000 -999.0000 -999.0000   63.6178  189.8358 -999.0000 -999.0000 -999.0000   18.4220   25.4440   23.1550    0.1473    2.5810   25.4440   18.4220   23.1550 -999.0000 
9652.0000    8.5000 -999.0000 -999.0000 -999.0000   65.2572  176.2667 -999.0000 -999.0000 -999.0000   14.8870   19.4100   17.6510    0.1297    2.5660   19.4100   14.8870   17.6510 -999.0000 
9652.5000    8.5000 -999.0000 -999.0000 -999.0000   67.3669  163.9357 -999.0000 -999.0000 -999.0000   13.7440   16.6840   15.2330    0.1220    2.5440   16.6840   13.7440   15.2330 -999.0000 
9653.0000    8.5000 -999.0000 -999.0000 -999.0000   70.8454  152.8953 -999.0000 -999.0000 -999.0000   13.7130   15.4880   14.2430    0.1409    2.5160   15.4880   13.7130   14.2430 -999.0000 
9653.5000    8.5000 -999.0000 -999.0000 -999.0000   76.8945  141.8801 -999.0000 -999.0000 -999.0000   13.4100   14.3150   13.2690    0.2069    2.4880   14.3150   13.4100   13.2690 -999.0000 
9654.0000    8.5000 -999.0000 -999.0000 -999.0000   80.0477  129.1440 -999.0000 -999.0000 -999.0000   13.9570   14.3940   13.4690    0.2775    2.4700   14.3940   13.9570   13.4690 -999.0000 
9654.5000    8.5000 -999.0000 -999.0000 -999.0000   79.3277  115.1903 -999.0000 -999.0000 -999.0000   18.0140   18.1500   16.9950    0.2833    2.4610   18.1500   18.0140   16.9950 -999.0000 
9655.0000    8.5000 -999.0000 -999.0000 -999.0000   76.7086  101.9647 -999.0000 -999.0000 -999.0000   30.7390   29.9280   27.5200    0.2613    2.4740   29.9280   30.7390   27.5200 -999.0000 
9655.5000    8.5000 -999.0000 -999.0000 -999.0000   74.7248   90.2031 -999.0000 -999.0000 -999.0000   51.0220   45.5540   41.5630    0.2402    2.4630   45.5540   51.0220   41.5630 -999.0000 
9656.0000    8.5000 -999.0000 -999.0000 -999.0000   71.4553   81.0639 -999.0000 -999.0000 -999.0000   71.7660   59.0490   54.5640    0.1956    2.4630   59.0490   71.7660   54.5640 -999.0000 
9656.5000    8.5000 -999.0000 -999.0000 -999.0000   68.7835   79.0943 -999.0000 -999.0000 -999.0000  137.5930   90.7310   82.9970    0.1526    2.4690   90.7310  137.5930   82.9970 -999.0000 
9657.0000    8.5000 -999.0000 -999.0000 -999.0000   68.9389   88.2427 -999.0000 -999.0000 -999.0000  265.3730  117.7520  105.5200    0.1445    2.4790  117.7520  265.3730  105.5200 -999.0000 
9657.5000    8.5000 -999.0000 -999.0000 -999.0000   70.5470  104.4912 -999.0000 -999.0000 -999.0000  315.9000  152.7220  148.3320    0.1573    2.5060  152.7220  315.9000  148.3320 -999.0000 
9658.0000    8.5000 -999.0000 -999.0000 -999.0000   72.3438  117.6403 -999.0000 -999.0000 -999.0000  247.5220  179.5510  177.1390    0.1732    2.5180  179.5510  247.5220  177.1390 -999.0000 
9658.5000    8.5000 -999.0000 -999.0000 -999.0000   72.7235  121.4220 -999.0000 -999.0000 -999.0000  164.4930  149.0940  147.8220    0.1693    2.5040  149.0940  164.4930  147.8220 -999.0000 
9659.0000    8.5000 -999.0000 -999.0000 -999.0000   71.7687  118.2303 -999.0000 -999.0000 -999.0000   62.6900   70.2880   69.8660    0.1454    2.4700   70.2880   62.6900   69.8660 -999.0000 
9659.5000    8.5000 -999.0000 -999.0000 -999.0000   70.4004  114.6049 -999.0000 -999.0000 -999.0000   24.1140   29.2880   29.2600    0.1192    2.4490   29.2880   24.1140   29.2600 -999.0000 
9660.0000    8.5000 -999.0000 -999.0000 -999.0000   70.2825  114.4634 -999.0000 -999.0000 -999.0000   12.0260   14.7390   14.7310    0.1142    2.4400   14.7390   12.0260   14.7310 -999.0000 
9660.5000    8.5000 -999.0000 -999.0000 -999.0000   71.6828  116.1512 -999.0000 -999.0000 -999.0000    8.9990   11.1940   11.1780    0.1392    2.4470   11.1940    8.9990   11.1780 -999.0000 
9661.0000    8.5000 -999.0000 -999.0000 -999.0000   75.1853  114.5296 -999.0000 -999.0000 -999.0000    7.9400   10.1260   10.1730    0.2114    2.4660   10.1260    7.9400   10.1730 -999.0000 
9661.5000    8.5000 -999.0000 -999.0000 -999.0000   77.3255  106.5817 -999.0000 -999.0000 -999.0000    7.1990    9.6290    9.7750    0.2669    2.4790    9.6290    7.1990    9.7750 -999.0000 
9662.0000    8.5000 -999.0000 -999.0000 -999.0000   72.2923   95.3736 -999.0000 -999.0000 -999.0000    7.5010   10.5710   10.9120    0.2172    2.4840   10.5710    7.5010   10.9120 -999.0000 
9662.5000    8.5000 -999.0000 -999.0000 -999.0000   68.2126   87.3355 -999.0000 -999.0000 -999.0000    9.7240   14.3130   14.9930    0.1597    2.5020   14.3130    9.7240   14.9930 -999.0000 
9663.0000    8.5000 -999.0000 -999.0000 -999.0000   67.1959   85.5325 -999.0000 -999.0000 -999.0000   14.2850   20.5070   21.6280    0.1484    2.5160   20.5070   14.2850   21.6280 -999.0000 
9663.5000    8.5000 -999.0000 -999.0000 -999.0000   68.0843   88.3659 -999.0000 -999.0000 -999.0000   17.3960   22.1650   23.3640    0.1606    2.5150   22.1650   17.3960   23.3640 -999.0000 
9664.0000    8.5000 -999.0000 -999.0000 -999.0000   70.3444   94.6467 -999.0000 -999.0000 -999.0000   15.4510   17.1950   18.0150    0.1878    2.4980   17.1950   15.4510   18.0150 -999.0000 
9664.5000    8.5000 -999.0000 -999.0000 -999.0000   73.9808  104.4581 -999.0000 -999.0000 -999.0000   12.1050   12.4770   12.9150    0.2317    2.4700   12.4770   12.1050   12.9150 -999.0000 
9665.0000    8.5000 -999.0000 -999.0000 -999.0000   77.4665  114.4749 -999.0000 -999.0000 -999.0000    9.7970   10.0770   10.2890    0.2716    2.4390   10.0770    9.7970   10.2890 -999.0000 
9665.5000    8.5000 -999.0000 -999.0000 -999.0000   79.6099  118.6023 -999.0000 -999.0000 -999.0000    7.8890    8.4910    8.5810    0.2983    2.4190    8.4910    7.8890    8.5810 -999.0000 
9666.0000    8.5000 -999.0000 -999.0000 -999.0000   80.3283  115.0192 -999.0000 -999.0000 -999.0000    6.4800    7.4640    7.5250    0.3146    2.4160    7.4640    6.4800    7.5250 -999.0000 
9666.5000    8.5000 -999.0000 -999.0000 -999.0000   78.7351  108.8651 -999.0000 -999.0000 -999.0000    6.0030    7.4360    7.5100    0.2972    2.4270    7.4360    6.0030    7.5100 -999.0000 
9667.0000    8.5000 -999.0000 -999.0000 -999.0000   75.8288  106.9959 -999.0000 -999.0000 -999.0000    6.0150    7.9000    8.0310    0.2533    2.4450    7.9000    6.0150    8.0310 -999.0000 
9667.5000    8.5000 -999.0000 -999.0000 -999.0000   74.5694  111.9473 -999.0000 -999.0000 -999.0000    5.8620    7.9610    8.1530    0.2242    2.4440    7.9610    5.8620    8.1530 -999.0000 
9668.0000    8.5000 -999.0000 -999.0000 -999.0000   75.7631  120.6346 -999.0000 -999.0000 -999.0000    5.4970    7.5550    7.8030    0.2313    2.4330    7.5550    5.4970    7.8030 -999.0000 
9668.5000    8.5000 -999.0000 -999.0000 -999.0000   78.6641  127.7849 -999.0000 -999.0000 -999.0000    5.0060    6.9380    7.2080    0.2683    2.4140    6.9380    5.0060    7.2080 -999.0000 
9669.0000    8.5000 -999.0000 -999.0000 -999.0000   82.1990  131.0097 -999.0000 -999.0000 -999.0000    4.5060    6.3250    6.5850    0.3229    2.3990    6.3250    4.5060    6.5850 -999.0000 
9669.5000    8.5000 -999.0000 -999.0000 -999.0000   83.6074  132.3494 -999.0000 -999.0000 -999.0000    4.2230    5.9960    6.2280    0.3463    2.3980    5.9960    4.2230    6.2280 -999.0000 
9670.0000    8.5000 -999.0000 -999.0000 -999.0000   82.8882  134.0382 -999.0000 -999.0000 -999.0000    4.1930    5.9490    6.1430    0.3354    2.4100    5.9490    4.1930    6.1430 -999.0000 
9670.5000    8.5000 -999.0000 -999.0000 -999.0000   82.1989  134.4993 -999.0000 -999.0000 -999.0000    4.4370    6.1550    6.3040    0.3231    2.4120    6.1550    4.4370    6.3040 -999.0000 
9671.0000    8.5000 -999.0000 -999.0000 -999.0000   81.4370  130.3787 -999.0000 -999.0000 -999.0000    5.1710    6.7990    6.9080    0.3151    2.4140    6.7990    5.1710    6.9080 -999.0000 
9671.5000    8.5000 -999.0000 -999.0000 -999.0000   80.1185  120.4281 -999.0000 -999.0000 -999.0000    6.9830    8.3800    8.4710    0.3042    2.4160    8.3800    6.9830    8.4710 -999.0000 
