~VERSION INFORMATION
 VERS.                 2.0:   CWLS LOG ASCII STANDARD - VERSION 2.0
 WRAP.                  NO:   SINGLE LINE PER DEPTH STEP
 CREA.                 2/17/2020 5:24:17 PM
#CREATED USING DSPetro VERSION 10ep.4.04 BY HB79161 ON 2/17/2020 5:24:17 PM
~WELL INFORMATION
#MNEM.UNIT       DATA                          DESCRIPTION MNEMONIC
#---------      ---------------------------   --------------------------
 STRT    .FT        9000.0000                 : START DEPTH
 STOP    .FT        10370.0000                : STOP DEPTH
 STEP    .FT        0.5000                    : STEP VALUE
 NULL    .      -999.0000                     : NULL VALUE
 DATE    .      2/17/2020                     : LAS file Creation Date
 WELL   .      LGAE-040                       : Well Name
 COMP   .      PETROPRODUCCION                : Company
 FLD    .      LAGO AGRIO                     : Field
 STATE  .      SUCUMBIOS                      : State
 COUNT  .      ECUADOR                        : Country
 UWI    .      LGAE-040                       : Unique Well Identifier (UWI)
 LOC    .      TWP        - Range       - Sec : Location
 PDAT   .      GR                             : Permanent Datum
 LGMEA  .      KB                             : Log Measured from
 DRMEA  .      KB                             : Drill Measured From
 KB     .      987                            : KB Elevation
 DF     .      -999.2500                      : DF Elevation
 GL     .      -999.2500                      : GL Elevation
 RWS    .      0                              : Def_Rw
 WST    .      0                              : Def_Rwt
 UTMZ   .      31                             : UTM Zone
 CNTY   .      LA                             : County
 PROV   .      SUCUMBIOS                      : Province
 MDEC   .      0                              : Magnetic Declination
 SRVC   .      SCH                            : Contractor
 GDAT   .      WGS 84                         : Geodatum
 LONG   .      0                              : Longitude
 LATI   .      0                              : Latitude
 COORDIN.                                     : Grid System
 XCOORD .                                     : X or East-West Coordinate
 YCOORD .                                     : Y or North-South Coordinate
~CURVE INFORMATION
#MNEM              UNIT       API CODE   Curve Type Comments
#----------  --------------- ----------  ---------- -----------
 DEPTH      .FT                        : Depth       
 BS         .inches                    : BitSize     Bit Size
 CAL        .inches                    : Caliper     
 CALI       .inch                      : Caliper     Caliper
 CALX       .inch                      : Caliper     
 DT         .us/ft                     : Sonic       
 GR         .API                       : GammaRay    GR = 0.995958 x GR + -0.122242
 M1R1       .ohm.m                     : ShalRes     
 M1R3       .ohm.m                     : MedRes      
 M1R9       .ohm.m                     : MedRes      
 M2R1       .ohm.m                     : ShalRes     
 M2R3       .ohm.m                     : MedRes      
 M2R9       .ohm.m                     : MedRes      
 NPHI       .v/v                       : Neutron     
 RHOB       .gm/cc                     : Density     Bulk Density
 RM         .ohm.m                     :             
 RS         .ohm.m                     : ShalRes     
 RT         .ohm.m                     : DeepRes     Resistivity
 SP         .mV                        : SP          Spontaneous Potential
~A  DEPTH     BS       CAL       CALI      CALX       DT        GR       M1R1      M1R3      M1R9      M2R1      M2R3      M2R9      NPHI      RHOB       RM        RS        RT        SP    
# ...
9063.0000    8.5000 -999.0000 -999.0000 -999.0000 -9190.5576   75.1197 -999.0000 -999.0000 -999.0000    2.8550    6.4140    7.2710    0.4271 -999.0000    6.4140    2.8550    7.2710 -999.0000 
9063.5000    8.5000 -999.0000 -999.0000 -999.0000 -9191.3691   76.9695 -999.0000 -999.0000 -999.0000    2.7690    6.2130    6.9060    0.4182 -999.0000    6.2130    2.7690    6.9060 -999.0000 
9064.0000    8.5000 -999.0000 -999.0000 -999.0000 -9192.5156   82.4161 -999.0000 -999.0000 -999.0000    2.7140    6.0890    6.6580    0.4144 -999.0000    6.0890    2.7140    6.6580 -999.0000 
9064.5000    8.5000 -999.0000 -999.0000 -999.0000 -9194.0313   89.9190 -999.0000 -999.0000 -999.0000    2.7310    6.1020    6.5870    0.4103 -999.0000    6.1020    2.7310    6.5870 -999.0000 
9065.0000    8.5000 -999.0000 -999.0000 -999.0000 -28305.1504   97.0989 -999.0000 -999.0000 -999.0000    2.8120    6.1920    6.6140    0.3978    2.2240    6.1920    2.8120    6.6140 -999.0000 
9065.5000    8.5000 -999.0000 -999.0000 -999.0000 -28306.9238  101.4124 -999.0000 -999.0000 -999.0000    2.9090    6.2070    6.5740    0.3802    2.2270    6.2070    2.9090    6.5740 -999.0000 
9066.0000    8.5000 -999.0000 -999.0000 -999.0000 -28308.5723  101.9419 -999.0000 -999.0000 -999.0000    3.0070    6.1040    6.4200    0.3621    2.2560    6.1040    3.0070    6.4200 -999.0000 
9066.5000    8.5000 -999.0000 -999.0000 -999.0000 -28311.1211  101.0667 -999.0000 -999.0000 -999.0000    3.2380    6.1470    6.4270    0.3317    2.3090    6.1470    3.2380    6.4270 -999.0000 
9067.0000    8.5000 -999.0000 -999.0000 -999.0000 -28314.5059  102.2101 -999.0000 -999.0000 -999.0000    3.8080    6.6590    6.9250    0.2959    2.3720    6.6590    3.8080    6.9250 -999.0000 
9067.5000    8.5000 -999.0000 -999.0000 -999.0000 -28316.8828  105.7818 -999.0000 -999.0000 -999.0000    4.6060    7.3410    7.5990    0.2772    2.4100    7.3410    4.6060    7.5990 -999.0000 
9068.0000    8.5000 -999.0000 -999.0000 -999.0000 -28318.8555  109.4345 -999.0000 -999.0000 -999.0000    4.9570    7.2430    7.4670    0.2619    2.4360    7.2430    4.9570    7.4670 -999.0000 
9068.5000    8.5000 -999.0000 -999.0000 -999.0000 -28320.8223  111.9324 -999.0000 -999.0000 -999.0000    4.8370    6.6460    6.8200    0.2431    2.4620    6.6460    4.8370    6.8200 -999.0000 
9069.0000    8.5000 -999.0000 -999.0000 -999.0000 -28321.7285  114.2432 -999.0000 -999.0000 -999.0000    4.8090    6.3970    6.5340    0.2391    2.4770    6.3970    4.8090    6.5340 -999.0000 
9069.5000    8.5000 -999.0000 -999.0000 -999.0000 -28321.3730  116.5197 -999.0000 -999.0000 -999.0000    4.8760    6.4050    6.5090    0.2522    2.4760    6.4050    4.8760    6.5090 -999.0000 
9070.0000    8.5000 -999.0000 -999.0000 -999.0000 -28320.0156  116.8643 -999.0000 -999.0000 -999.0000    4.8940    6.4240    6.4980    0.2743    2.4660    6.4240    4.8940    6.4980 -999.0000 
9070.5000    8.5000 -999.0000 -999.0000 -999.0000 -28318.6602  113.7194 -999.0000 -999.0000 -999.0000    4.8880    6.5020    6.5520    0.2859    2.4570    6.5020    4.8880    6.5520 -999.0000 
9071.0000    8.5000 -999.0000 -999.0000 -999.0000 -28317.8340  107.9978 -999.0000 -999.0000 -999.0000    4.8250    6.6070    6.6460    0.2793    2.4460    6.6070    4.8250    6.6460 -999.0000 
9071.5000    8.5000 -999.0000 -999.0000 -999.0000 -28317.8379  102.5467 -999.0000 -999.0000 -999.0000    4.6420    6.6000    6.6390    0.2603    2.4400    6.6000    4.6420    6.6390 -999.0000 
9072.0000    8.5000 -999.0000 -999.0000 -999.0000 -28318.2344  100.2051 -999.0000 -999.0000 -999.0000    4.4620    6.5270    6.5770    0.2459    2.4400    6.5270    4.4620    6.5770 -999.0000 
9072.5000    8.5000 -999.0000 -999.0000 -999.0000 -28318.7676  101.4284 -999.0000 -999.0000 -999.0000    4.4510    6.5210    6.5920    0.2387    2.4360    6.5210    4.4510    6.5920 -999.0000 
9073.0000    8.5000 -999.0000 -999.0000 -999.0000 -28319.0586  103.6216 -999.0000 -999.0000 -999.0000    4.7300    6.7130    6.8140    0.2368    2.4260    6.7130    4.7300    6.8140 -999.0000 
9073.5000    8.5000 -999.0000 -999.0000 -999.0000 -28319.2363  103.8556 -999.0000 -999.0000 -999.0000    5.4310    7.2710    7.4110    0.2381    2.4370    7.2710    5.4310    7.4110 -999.0000 
9074.0000    8.5000 -999.0000 -999.0000 -999.0000 -28319.1309  101.8586 -999.0000 -999.0000 -999.0000    6.3360    7.9220    8.1020    0.2376    2.4480    7.9220    6.3360    8.1020 -999.0000 
9074.5000    8.5000 -999.0000 -999.0000 -999.0000 -28319.3379   99.4325 -999.0000 -999.0000 -999.0000    6.7170    7.9460    8.1450    0.2274    2.4510    7.9460    6.7170    8.1450 -999.0000 
9075.0000    8.5000 -999.0000 -999.0000 -999.0000 -28320.0664   97.9468 -999.0000 -999.0000 -999.0000    6.6320    7.6500    7.8540    0.2121    2.4580    7.6500    6.6320    7.8540 -999.0000 
9075.5000    8.5000 -999.0000 -999.0000 -999.0000 -28320.4082   97.6923 -999.0000 -999.0000 -999.0000    6.6040    7.6590    7.8610    0.2072    2.4640    7.6590    6.6040    7.8610 -999.0000 
9076.0000    8.5000 -999.0000 -999.0000 -999.0000 -28320.5742   98.5117 -999.0000 -999.0000 -999.0000    6.4430    7.6590    7.8580    0.2071    2.4650    7.6590    6.4430    7.8580 -999.0000 
9076.5000    8.5000 -999.0000 -999.0000 -999.0000 -28321.3984  100.2382 -999.0000 -999.0000 -999.0000    5.9480    7.3270    7.5140    0.2024    2.4790    7.3270    5.9480    7.5140 -999.0000 
9077.0000    8.5000 -999.0000 -999.0000 -999.0000 -28322.3828  102.9963 -999.0000 -999.0000 -999.0000    5.4120    6.9590    7.1400    0.1987    2.4950    6.9590    5.4120    7.1400 -999.0000 
9077.5000    8.5000 -999.0000 -999.0000 -999.0000 -28322.7129  107.3063 -999.0000 -999.0000 -999.0000    5.0740    6.8310    7.0190    0.2078    2.5000    6.8310    5.0740    7.0190 -999.0000 
9078.0000    8.5000 -999.0000 -999.0000 -999.0000 -28322.2480  112.9834 -999.0000 -999.0000 -999.0000    4.7750    6.6910    6.8920    0.2334    2.4990    6.6910    4.7750    6.8920 -999.0000 
9078.5000    8.5000 -999.0000 -999.0000 -999.0000 -28321.9863  118.5167 -999.0000 -999.0000 -999.0000    4.4380    6.3870    6.5970    0.2535    2.4940    6.3870    4.4380    6.5970 -999.0000 
9079.0000    8.5000 -999.0000 -999.0000 -999.0000 -28322.1895  122.2836 -999.0000 -999.0000 -999.0000    4.2540    6.2020    6.4230    0.2598    2.4890    6.2020    4.2540    6.4230 -999.0000 
9079.5000    8.5000 -999.0000 -999.0000 -999.0000 -28322.3438  123.7259 -999.0000 -999.0000 -999.0000    4.2730    6.2440    6.4780    0.2601    2.4850    6.2440    4.2730    6.4780 -999.0000 
9080.0000    8.5000 -999.0000 -999.0000 -999.0000 -28322.3125  123.4144 -999.0000 -999.0000 -999.0000    4.3400    6.3130    6.5560    0.2597    2.4850    6.3130    4.3400    6.5560 -999.0000 
9080.5000    8.5000 -999.0000 -999.0000 -999.0000 -28322.2363  123.0024 -999.0000 -999.0000 -999.0000    4.3610    6.2970    6.5420    0.2567    2.4760    6.2970    4.3610    6.5420 -999.0000 
9081.0000    8.5000 -999.0000 -999.0000 -999.0000 -28322.2832  124.1516 -999.0000 -999.0000 -999.0000    4.4610    6.4160    6.6690    0.2563    2.4670    6.4160    4.4610    6.6690 -999.0000 
9081.5000    8.5000 -999.0000 -999.0000 -999.0000 -28322.0391  126.9336 -999.0000 -999.0000 -999.0000    4.7000    6.7940    7.0720    0.2645    2.4530    6.7940    4.7000    7.0720 -999.0000 
9082.0000    8.5000 -999.0000 -999.0000 -999.0000 -28321.6699  130.2965 -999.0000 -999.0000 -999.0000    4.7980    7.0660    7.3770    0.2757    2.4360    7.0660    4.7980    7.3770 -999.0000 
9082.5000    8.5000 -999.0000 -999.0000 -999.0000 -28321.7715  133.1116 -999.0000 -999.0000 -999.0000    4.4000    6.7080    7.0380    0.2788    2.4250    6.7080    4.4000    7.0380 -999.0000 
9083.0000    8.5000 -999.0000 -999.0000 -999.0000 -28322.4180  133.9766 -999.0000 -999.0000 -999.0000    3.6260    5.7850    6.1090    0.2688    2.4220    5.7850    3.6260    6.1090 -999.0000 
9083.5000    8.5000 -999.0000 -999.0000 -999.0000 -28322.1191  132.0356 -999.0000 -999.0000 -999.0000    2.9860    4.9800    5.2930    0.2644    2.4110    4.9800    2.9860    5.2930 -999.0000 
