~VERSION INFORMATION
 VERS.                 2.0:   CWLS LOG ASCII STANDARD - VERSION 2.0
 WRAP.                  NO:   SINGLE LINE PER DEPTH STEP
 CREA.                 2/17/2020 5:24:17 PM
#CREATED USING DSPetro VERSION 10ep.4.04 BY HB79161 ON 2/17/2020 5:24:17 PM
~WELL INFORMATION
#MNEM.UNIT       DATA                          DESCRIPTION MNEMONIC
#---------      ---------------------------   --------------------------
 STRT    .FT        9000.0000                 : START DEPTH
 STOP    .FT        10370.0000                : STOP DEPTH
 STEP    .FT        0.5000                    : STEP VALUE
 NULL    .      -999.0000                     : NULL VALUE
 DATE    .      2/17/2020                     : LAS file Creation Date
 WELL   .      LGAE-040                       : Well Name
 COMP   .      PETROPRODUCCION                : Company
 FLD    .      LAGO AGRIO                     : Field
 STATE  .      SUCUMBIOS                      : State
 COUNT  .      ECUADOR                        : Country
 UWI    .      LGAE-040                       : Unique Well Identifier (UWI)
 LOC    .      TWP        - Range       - Sec : Location
 PDAT   .      GR                             : Permanent Datum
 LGMEA  .      KB                             : Log Measured from
 DRMEA  .      KB                             : Drill Measured From
 KB     .      987                            : KB Elevation
 DF     .      -999.2500                      : DF Elevation
 GL     .      -999.2500                      : GL Elevation
 RWS    .      0                              : Def_Rw
 WST    .      0                              : Def_Rwt
 UTMZ   .      31                             : UTM Zone
 CNTY   .      LA                             : County
 PROV   .      SUCUMBIOS                      : Province
 MDEC   .      0                              : Magnetic Declination
 SRVC   .      SCH                            : Contractor
 GDAT   .      WGS 84                         : Geodatum
 LONG   .      0                              : Longitude
 LATI   .      0                              : Latitude
 COORDIN.                                     : Grid System
 XCOORD .                                     : X or East-West Coordinate
 YCOORD .                                     : Y or North-South Coordinate
~CURVE INFORMATION
#MNEM              UNIT       API CODE   Curve Type Comments
#----------  --------------- ----------  ---------- -----------
 DEPTH      .FT                        : Depth       
 BS         .inches                    : BitSize     Bit Size
 CAL        .inches                    : Caliper     
 CALI       .inch                      : Caliper     Caliper
 CALX       .inch                      : Caliper     
 DT         .us/ft                     : Sonic       
 GR         .API                       : GammaRay    GR = 0.995958 x GR + -0.122242
 M1R1       .ohm.m                     : ShalRes     
 M1R3       .ohm.m                     : MedRes      
 M1R9       .ohm.m                     : MedRes      
 M2R1       .ohm.m                     : ShalRes     
 M2R3       .ohm.m                     : MedRes      
 M2R9       .ohm.m                     : MedRes      
 NPHI       .v/v                       : Neutron     
 RHOB       .gm/cc                     : Density     Bulk Density
 RM         .ohm.m                     :             
 RS         .ohm.m                     : ShalRes     
 RT         .ohm.m                     : DeepRes     Resistivity
 SP         .mV                        : SP          Spontaneous Potential
~A  DEPTH     BS       CAL       CALI      CALX       DT        GR       M1R1      M1R3      M1R9      M2R1      M2R3      M2R9      NPHI      RHOB       RM        RS        RT        SP    
# ...
9399.0000    8.5000 -999.0000 -999.0000 -999.0000   78.5167  118.9869 -999.0000 -999.0000 -999.0000    3.9680    4.2090    4.3790    0.2069    2.5000    4.2090    3.9680    4.3790 -999.0000 
9399.5000    8.5000 -999.0000 -999.0000 -999.0000   78.6395  120.9929 -999.0000 -999.0000 -999.0000    3.9830    4.1540    4.2880    0.2053    2.5050    4.1540    3.9830    4.2880 -999.0000 
9400.0000    8.5000 -999.0000 -999.0000 -999.0000   78.4185  121.8967 -999.0000 -999.0000 -999.0000    3.8330    3.9420    4.0400    0.2002    2.5090    3.9420    3.8330    4.0400 -999.0000 
9400.5000    8.5000 -999.0000 -999.0000 -999.0000   77.9480  121.2018 -999.0000 -999.0000 -999.0000    3.6690    3.7290    3.7980    0.1957    2.5150    3.7290    3.6690    3.7980 -999.0000 
9401.0000    8.5000 -999.0000 -999.0000 -999.0000   77.6742  119.1797 -999.0000 -999.0000 -999.0000    3.6730    3.7040    3.7550    0.1960    2.5140    3.7040    3.6730    3.7550 -999.0000 
9401.5000    8.5000 -999.0000 -999.0000 -999.0000   77.5559  116.2048 -999.0000 -999.0000 -999.0000    3.7290    3.7690    3.8090    0.2007    2.5100    3.7690    3.7290    3.8090 -999.0000 
9402.0000    8.5000 -999.0000 -999.0000 -999.0000   77.2512  112.0568 -999.0000 -999.0000 -999.0000    3.5300    3.6510    3.6860    0.2039    2.5020    3.6510    3.5300    3.6860 -999.0000 
9402.5000    8.5000 -999.0000 -999.0000 -999.0000   76.7780  107.2299 -999.0000 -999.0000 -999.0000    3.0770    3.3360    3.3710    0.2080    2.5000    3.3360    3.0770    3.3710 -999.0000 
9403.0000    8.5000 -999.0000 -999.0000 -999.0000   76.4432  103.3911 -999.0000 -999.0000 -999.0000    2.5620    2.9570    2.9940    0.2129    2.5010    2.9570    2.5620    2.9940 -999.0000 
9403.5000    8.5000 -999.0000 -999.0000 -999.0000   76.2224  101.5311 -999.0000 -999.0000 -999.0000    2.1840    2.6800    2.7180    0.2113    2.4930    2.6800    2.1840    2.7180 -999.0000 
9404.0000    8.5000 -999.0000 -999.0000 -999.0000   77.0166  101.5322 -999.0000 -999.0000 -999.0000    2.0510    2.6160    2.6580    0.2177    2.4700    2.6160    2.0510    2.6580 -999.0000 
9404.5000    8.5000 -999.0000 -999.0000 -999.0000   79.4178  103.0008 -999.0000 -999.0000 -999.0000    2.1180    2.7120    2.7580    0.2497    2.4490    2.7120    2.1180    2.7580 -999.0000 
9405.0000    8.5000 -999.0000 -999.0000 -999.0000   81.9209  104.7411 -999.0000 -999.0000 -999.0000    2.2460    2.7860    2.8330    0.2821    2.4260    2.7860    2.2460    2.8330 -999.0000 
9405.5000    8.5000 -999.0000 -999.0000 -999.0000   82.5984  105.1039 -999.0000 -999.0000 -999.0000    2.3030    2.7130    2.7590    0.2909    2.4190    2.7130    2.3030    2.7590 -999.0000 
9406.0000    8.5000 -999.0000 -999.0000 -999.0000   81.5682  104.1751 -999.0000 -999.0000 -999.0000    2.3280    2.6100    2.6570    0.2804    2.4350    2.6100    2.3280    2.6570 -999.0000 
9406.5000    8.5000 -999.0000 -999.0000 -999.0000   80.4283  103.6125 -999.0000 -999.0000 -999.0000    2.4370    2.6460    2.6980    0.2676    2.4530    2.6460    2.4370    2.6980 -999.0000 
9407.0000    8.5000 -999.0000 -999.0000 -999.0000   80.4223  103.9514 -999.0000 -999.0000 -999.0000    2.6030    2.7930    2.8560    0.2669    2.4540    2.7930    2.6030    2.8560 -999.0000 
9407.5000    8.5000 -999.0000 -999.0000 -999.0000   81.1503  104.2595 -999.0000 -999.0000 -999.0000    2.6560    2.8570    2.9320    0.2747    2.4410    2.8570    2.6560    2.9320 -999.0000 
9408.0000    8.5000 -999.0000 -999.0000 -999.0000   82.1243  104.2835 -999.0000 -999.0000 -999.0000    2.5940    2.8180    2.9020    0.2829    2.4140    2.8180    2.5940    2.9020 -999.0000 
9408.5000    8.5000 -999.0000 -999.0000 -999.0000   82.6972  104.8826 -999.0000 -999.0000 -999.0000    2.5690    2.8150    2.9070    0.2871    2.4010    2.8150    2.5690    2.9070 -999.0000 
9409.0000    8.5000 -999.0000 -999.0000 -999.0000   82.7026  106.5155 -999.0000 -999.0000 -999.0000    2.6150    2.8680    2.9670    0.2851    2.4080    2.8680    2.6150    2.9670 -999.0000 
9409.5000    8.5000 -999.0000 -999.0000 -999.0000   82.1352  108.6779 -999.0000 -999.0000 -999.0000    2.6880    2.9200    3.0220    0.2751    2.4260    2.9200    2.6880    3.0220 -999.0000 
9410.0000    8.5000 -999.0000 -999.0000 -999.0000   81.4330  110.4193 -999.0000 -999.0000 -999.0000    2.7520    2.9410    3.0410    0.2628    2.4410    2.9410    2.7520    3.0410 -999.0000 
9410.5000    8.5000 -999.0000 -999.0000 -999.0000   81.1772  111.0001 -999.0000 -999.0000 -999.0000    2.7950    2.9340    3.0300    0.2559    2.4390    2.9340    2.7950    3.0300 -999.0000 
9411.0000    8.5000 -999.0000 -999.0000 -999.0000   81.6764  110.6920 -999.0000 -999.0000 -999.0000    2.8530    2.9470    3.0400    0.2599    2.4220    2.9470    2.8530    3.0400 -999.0000 
9411.5000    8.5000 -999.0000 -999.0000 -999.0000   82.4224  110.6544 -999.0000 -999.0000 -999.0000    2.9340    2.9990    3.0900    0.2676    2.4050    2.9990    2.9340    3.0900 -999.0000 
9412.0000    8.5000 -999.0000 -999.0000 -999.0000   82.2957  111.0480 -999.0000 -999.0000 -999.0000    2.9800    3.0350    3.1270    0.2632    2.4020    3.0350    2.9800    3.1270 -999.0000 
9412.5000    8.5000 -999.0000 -999.0000 -999.0000   80.9948  110.7148 -999.0000 -999.0000 -999.0000    2.9690    3.0350    3.1320    0.2448    2.4140    3.0350    2.9690    3.1320 -999.0000 
9413.0000    8.5000 -999.0000 -999.0000 -999.0000   79.7864  109.5920 -999.0000 -999.0000 -999.0000    2.9520    3.0470    3.1530    0.2330    2.4340    3.0470    2.9520    3.1530 -999.0000 
9413.5000    8.5000 -999.0000 -999.0000 -999.0000   79.2060  109.2565 -999.0000 -999.0000 -999.0000    2.9610    3.0950    3.2140    0.2300    2.4530    3.0950    2.9610    3.2140 -999.0000 
9414.0000    8.5000 -999.0000 -999.0000 -999.0000   79.1986  110.0929 -999.0000 -999.0000 -999.0000    2.9570    3.1250    3.2580    0.2310    2.4630    3.1250    2.9570    3.2580 -999.0000 
9414.5000    8.5000 -999.0000 -999.0000 -999.0000   79.3520  110.3017 -999.0000 -999.0000 -999.0000    2.8910    3.0670    3.2110    0.2325    2.4610    3.0670    2.8910    3.2110 -999.0000 
9415.0000    8.5000 -999.0000 -999.0000 -999.0000   79.3667  108.5102 -999.0000 -999.0000 -999.0000    2.8040    2.9640    3.1130    0.2353    2.4540    2.9640    2.8040    3.1130 -999.0000 
9415.5000    8.5000 -999.0000 -999.0000 -999.0000   79.5763  105.6140 -999.0000 -999.0000 -999.0000    2.7800    2.9120    3.0650    0.2395    2.4320    2.9120    2.7800    3.0650 -999.0000 
9416.0000    8.5000 -999.0000 -999.0000 -999.0000   79.8292  103.2428 -999.0000 -999.0000 -999.0000    2.8080    2.9100    3.0690    0.2420    2.4070    2.9100    2.8080    3.0690 -999.0000 
9416.5000    8.5000 -999.0000 -999.0000 -999.0000   79.6261  101.8289 -999.0000 -999.0000 -999.0000    2.8150    2.8980    3.0590    0.2388    2.3970    2.8980    2.8150    3.0590 -999.0000 
9417.0000    8.5000 -999.0000 -999.0000 -999.0000   79.1890  100.7962 -999.0000 -999.0000 -999.0000    2.7920    2.8760    3.0360    0.2379    2.4090    2.8760    2.7920    3.0360 -999.0000 
9417.5000    8.5000 -999.0000 -999.0000 -999.0000   79.1099   99.6220 -999.0000 -999.0000 -999.0000    2.7680    2.8730    3.0330    0.2490    2.4360    2.8730    2.7680    3.0330 -999.0000 
9418.0000    8.5000 -999.0000 -999.0000 -999.0000   79.1455   98.0815 -999.0000 -999.0000 -999.0000    2.7510    2.8910    3.0490    0.2649    2.4680    2.8910    2.7510    3.0490 -999.0000 
9418.5000    8.5000 -999.0000 -999.0000 -999.0000   78.8480   96.5695 -999.0000 -999.0000 -999.0000    2.7330    2.9110    3.0680    0.2699    2.4860    2.9110    2.7330    3.0680 -999.0000 
9419.0000    8.5000 -999.0000 -999.0000 -999.0000   77.9278   96.1472 -999.0000 -999.0000 -999.0000    2.6900    2.9000    3.0520    0.2562    2.4910    2.9000    2.6900    3.0520 -999.0000 
9419.5000    8.5000 -999.0000 -999.0000 -999.0000   76.9659   97.5394 -999.0000 -999.0000 -999.0000    2.5980    2.8280    2.9730    0.2364    2.4950    2.8280    2.5980    2.9730 -999.0000 
