~VERSION INFORMATION
 VERS.                 2.0:   CWLS LOG ASCII STANDARD - VERSION 2.0
 WRAP.                  NO:   SINGLE LINE PER DEPTH STEP
 CREA.                 2/17/2020 5:24:17 PM
#CREATED USING DSPetro VERSION 10ep.4.04 BY HB79161 ON 2/17/2020 5:24:17 PM
~WELL INFORMATION
#MNEM.UNIT       DATA                          DESCRIPTION MNEMONIC
#---------      ---------------------------   --------------------------
 STRT    .FT        9000.0000                 : START DEPTH
 STOP    .FT        10370.0000                : STOP DEPTH
 STEP    .FT        0.5000                    : STEP VALUE
 NULL    .      -999.0000                     : NULL VALUE
 DATE    .      2/17/2020                     : LAS file Creation Date
 WELL   .      LGAE-040                       : Well Name
 COMP   .      PETROPRODUCCION                : Company
 FLD    .      LAGO AGRIO                     : Field
 STATE  .      SUCUMBIOS                      : State
 COUNT  .      ECUADOR                        : Country
 UWI    .      LGAE-040                       : Unique Well Identifier (UWI)
 LOC    .      TWP        - Range       - Sec : Location
 PDAT   .      GR                             : Permanent Datum
 LGMEA  .      KB                             : Log Measured from
 DRMEA  .      KB                             : Drill Measured From
 KB     .      987                            : KB Elevation
 DF     .      -999.2500                      : DF Elevation
 GL     .      -999.2500                      : GL Elevation
 RWS    .      0                              : Def_Rw
 WST    .      0                              : Def_Rwt
 UTMZ   .      31                             : UTM Zone
 CNTY   .      LA                             : County
 PROV   .      SUCUMBIOS                      : Province
 MDEC   .      0                              : Magnetic Declination
 SRVC   .      SCH                            : Contractor
 GDAT   .      WGS 84                         : Geodatum
 LONG   .      0                              : Longitude
 LATI   .      0                              : Latitude
 COORDIN.                                     : Grid System
 XCOORD .                                     : X or East-West Coordinate
 YCOORD .                                     : Y or North-South Coordinate
~CURVE INFORMATION
#MNEM              UNIT       API CODE   Curve Type Comments
#----------  --------------- ----------  ---------- -----------
 DEPTH      .FT                        : Depth       
 BS         .inches                    : BitSize     Bit Size
 CAL        .inches                    : Caliper     
 CALI       .inch                      : Caliper     Caliper
 CALX       .inch                      : Caliper     
 DT         .us/ft                     : Sonic       
 GR         .API                       : GammaRay    GR = 0.995958 x GR + -0.122242
 M1R1       .ohm.m                     : ShalRes     
 M1R3       .ohm.m                     : MedRes      
 M1R9       .ohm.m                     : MedRes      
 M2R1       .ohm.m                     : ShalRes     
 M2R3       .ohm.m                     : MedRes      
 M2R9       .ohm.m                     : MedRes      
 NPHI       .v/v                       : Neutron     
 RHOB       .gm/cc                     : Density     Bulk Density
 RM         .ohm.m                     :             
 RS         .ohm.m                     : ShalRes     
 RT         .ohm.m                     : DeepRes     Resistivity
 SP         .mV                        : SP          Spontaneous Potential
~A  DEPTH     BS       CAL       CALI      CALX       DT        GR       M1R1      M1R3      M1R9      M2R1      M2R3      M2R9      NPHI      RHOB       RM        RS        RT        SP    
# ...
9756.0000    8.5000 -999.0000 -999.0000 -999.0000   57.0768   85.1502 -999.0000 -999.0000 -999.0000  237.0220  222.0560  217.4390    0.0302    2.6890  222.0560  237.0220  217.4390 -999.0000 
9756.5000    8.5000 -999.0000 -999.0000 -999.0000   57.3446   86.2548 -999.0000 -999.0000 -999.0000  184.5440  229.5790  218.6470    0.0323    2.6850  229.5790  184.5440  218.6470 -999.0000 
9757.0000    8.5000 -999.0000 -999.0000 -999.0000   58.4439   84.4051 -999.0000 -999.0000 -999.0000  125.3300  208.9190  197.5580    0.0444    2.6560  208.9190  125.3300  197.5580 -999.0000 
9757.5000    8.5000 -999.0000 -999.0000 -999.0000   60.5771   80.5755 -999.0000 -999.0000 -999.0000   72.7210  150.0370  148.3740    0.0693    2.6030  150.0370   72.7210  148.3740 -999.0000 
9758.0000    8.5000 -999.0000 -999.0000 -999.0000   62.5018   76.8040 -999.0000 -999.0000 -999.0000   50.2540  109.7210  111.7350    0.0859    2.5370  109.7210   50.2540  111.7350 -999.0000 
9758.5000    8.5000 -999.0000 -999.0000 -999.0000   63.4348   75.3366 -999.0000 -999.0000 -999.0000   48.7950   97.9850  100.8750    0.0880    2.4890   97.9850   48.7950  100.8750 -999.0000 
9759.0000    8.5000 -999.0000 -999.0000 -999.0000   64.5403   79.0498 -999.0000 -999.0000 -999.0000   54.4760   86.0510   91.2120    0.0965    2.4690   86.0510   54.4760   91.2120 -999.0000 
9759.5000    8.5000 -999.0000 -999.0000 -999.0000   66.4052   89.8163 -999.0000 -999.0000 -999.0000   48.4400   59.3400   64.8970    0.1190    2.4750   59.3400   48.4400   64.8970 -999.0000 
9760.0000    8.5000 -999.0000 -999.0000 -999.0000   69.4969  105.0514 -999.0000 -999.0000 -999.0000   40.9100   42.0930   46.4480    0.1578    2.4800   42.0930   40.9100   46.4480 -999.0000 
9760.5000    8.5000 -999.0000 -999.0000 -999.0000   74.0980  117.4555 -999.0000 -999.0000 -999.0000   40.2240   39.4060   43.1420    0.2252    2.4790   39.4060   40.2240   43.1420 -999.0000 
9761.0000    8.5000 -999.0000 -999.0000 -999.0000   76.4183  120.8309 -999.0000 -999.0000 -999.0000   45.7820   44.5600   48.6450    0.2622    2.4770   44.5600   45.7820   48.6450 -999.0000 
9761.5000    8.5000 -999.0000 -999.0000 -999.0000   73.5252  115.8613 -999.0000 -999.0000 -999.0000   53.2620   57.1120   61.9720    0.2213    2.4920   57.1120   53.2620   61.9720 -999.0000 
9762.0000    8.5000 -999.0000 -999.0000 -999.0000   70.8001  109.2656 -999.0000 -999.0000 -999.0000   69.5400   88.0280   93.2640    0.1892    2.5180   88.0280   69.5400   93.2640 -999.0000 
9762.5000    8.5000 -999.0000 -999.0000 -999.0000   70.6716  108.5307 -999.0000 -999.0000 -999.0000   96.6570  132.4940  135.6930    0.1926    2.5320  132.4940   96.6570  135.6930 -999.0000 
9763.0000    8.5000 -999.0000 -999.0000 -999.0000   71.4288  115.9172 -999.0000 -999.0000 -999.0000   79.3680  104.6120  111.4930    0.1948    2.5250  104.6120   79.3680  111.4930 -999.0000 
9763.5000    8.5000 -999.0000 -999.0000 -999.0000   71.4949  124.9720 -999.0000 -999.0000 -999.0000   40.4000   50.8040   56.8340    0.1770    2.5020   50.8040   40.4000   56.8340 -999.0000 
9764.0000    8.5000 -999.0000 -999.0000 -999.0000   70.9561  125.6453 -999.0000 -999.0000 -999.0000   22.3540   26.0370   29.2660    0.1589    2.4800   26.0370   22.3540   29.2660 -999.0000 
9764.5000    8.5000 -999.0000 -999.0000 -999.0000   70.1351  116.1512 -999.0000 -999.0000 -999.0000   17.5200   19.2470   21.3370    0.1540    2.4750   19.2470   17.5200   21.3370 -999.0000 
9765.0000    8.5000 -999.0000 -999.0000 -999.0000   69.7721  106.6387 -999.0000 -999.0000 -999.0000   14.9430   15.6300   17.0560    0.1646    2.4910   15.6300   14.9430   17.0560 -999.0000 
9765.5000    8.5000 -999.0000 -999.0000 -999.0000   70.4872  108.4851 -999.0000 -999.0000 -999.0000   11.9430   11.9990   12.9300    0.1797    2.5040   11.9990   11.9430   12.9300 -999.0000 
9766.0000    8.5000 -999.0000 -999.0000 -999.0000   72.0503  122.1170 -999.0000 -999.0000 -999.0000   10.7870   10.6200   11.3140    0.1936    2.5110   10.6200   10.7870   11.3140 -999.0000 
9766.5000    8.5000 -999.0000 -999.0000 -999.0000   73.5724  137.0166 -999.0000 -999.0000 -999.0000   11.7660   11.3840   12.0560    0.2028    2.5110   11.3840   11.7660   12.0560 -999.0000 
9767.0000    8.5000 -999.0000 -999.0000 -999.0000   74.0287  142.1072 -999.0000 -999.0000 -999.0000   13.8240   13.2480   14.0710    0.2017    2.5020   13.2480   13.8240   14.0710 -999.0000 
9767.5000    8.5000 -999.0000 -999.0000 -999.0000   73.1114  134.6830 -999.0000 -999.0000 -999.0000   15.4760   14.9200   15.9090    0.1915    2.4940   14.9200   15.4760   15.9090 -999.0000 
9768.0000    8.5000 -999.0000 -999.0000 -999.0000   71.3535  120.6209 -999.0000 -999.0000 -999.0000   18.9420   18.3470   19.7080    0.1784    2.4980   18.3470   18.9420   19.7080 -999.0000 
9768.5000    8.5000 -999.0000 -999.0000 -999.0000   70.0715  107.8061 -999.0000 -999.0000 -999.0000   28.3550   27.8090   30.0840    0.1696    2.4940   27.8090   28.3550   30.0840 -999.0000 
9769.0000    8.5000 -999.0000 -999.0000 -999.0000   69.4035  100.1081 -999.0000 -999.0000 -999.0000   38.7160   37.9250   41.0590    0.1687    2.4990   37.9250   38.7160   41.0590 -999.0000 
9769.5000    8.5000 -999.0000 -999.0000 -999.0000   68.5287   97.0225 -999.0000 -999.0000 -999.0000   37.3410   37.2240   40.2280    0.1629    2.5170   37.2240   37.3410   40.2280 -999.0000 
9770.0000    8.5000 -999.0000 -999.0000 -999.0000   67.2884   96.9072 -999.0000 -999.0000 -999.0000   33.3430   34.0570   36.7290    0.1486    2.5400   34.0570   33.3430   36.7290 -999.0000 
9770.5000    8.5000 -999.0000 -999.0000 -999.0000   66.8240   98.8186 -999.0000 -999.0000 -999.0000   31.0860   32.9900   35.2760    0.1403    2.5470   32.9900   31.0860   35.2760 -999.0000 
9771.0000    8.5000 -999.0000 -999.0000 -999.0000   66.9996  101.7353 -999.0000 -999.0000 -999.0000   28.1140   30.9290   32.6810    0.1368    2.5380   30.9290   28.1140   32.6810 -999.0000 
9771.5000    8.5000 -999.0000 -999.0000 -999.0000   67.4642  103.8590 -999.0000 -999.0000 -999.0000   25.4210   28.6020   29.8400    0.1326    2.5090   28.6020   25.4210   29.8400 -999.0000 
9772.0000    8.5000 -999.0000 -999.0000 -999.0000   67.7227  103.8966 -999.0000 -999.0000 -999.0000   24.4160   27.5830   28.4250    0.1293    2.4860   27.5830   24.4160   28.4250 -999.0000 
9772.5000    8.5000 -999.0000 -999.0000 -999.0000   67.7259  103.1264 -999.0000 -999.0000 -999.0000   25.2130   27.9850   28.5610    0.1303    2.4860   27.9850   25.2130   28.5610 -999.0000 
9773.0000    8.5000 -999.0000 -999.0000 -999.0000   67.9098  105.1222 -999.0000 -999.0000 -999.0000   26.3920   28.1770   28.5440    0.1353    2.4980   28.1770   26.3920   28.5440 -999.0000 
9773.5000    8.5000 -999.0000 -999.0000 -999.0000   68.5781  112.1127 -999.0000 -999.0000 -999.0000   26.0030   26.5420   26.7940    0.1412    2.5050   26.5420   26.0030   26.7940 -999.0000 
9774.0000    8.5000 -999.0000 -999.0000 -999.0000   69.7519  121.4939 -999.0000 -999.0000 -999.0000   23.3810   23.2350   23.4440    0.1495    2.5010   23.2350   23.3810   23.4440 -999.0000 
9774.5000    8.5000 -999.0000 -999.0000 -999.0000   70.9777  127.2771 -999.0000 -999.0000 -999.0000   19.7120   18.9830   19.1320    0.1597    2.4870   18.9830   19.7120   19.1320 -999.0000 
9775.0000    8.5000 -999.0000 -999.0000 -999.0000   71.1109  125.5084 -999.0000 -999.0000 -999.0000   17.0570   15.9860   16.1160    0.1622    2.4810   15.9860   17.0570   16.1160 -999.0000 
9775.5000    8.5000 -999.0000 -999.0000 -999.0000   70.0006  116.8598 -999.0000 -999.0000 -999.0000   17.7380   16.0210   16.1870    0.1569    2.4930   16.0210   17.7380   16.1870 -999.0000 
9776.0000    8.5000 -999.0000 -999.0000 -999.0000   68.8902  103.7209 -999.0000 -999.0000 -999.0000   24.5330   20.5670   20.8860    0.1509    2.4870   20.5670   24.5330   20.8860 -999.0000 
9776.5000    8.5000 -999.0000 -999.0000 -999.0000   66.8701   87.9483 -999.0000 -999.0000 -999.0000   40.7850   30.4170   31.2910    0.1362    2.4940   30.4170   40.7850   31.2910 -999.0000 
