~VERSION INFORMATION
 VERS.                 2.0:   CWLS LOG ASCII STANDARD - VERSION 2.0
 WRAP.                  NO:   SINGLE LINE PER DEPTH STEP
 CREA.                 2/17/2020 5:24:17 PM
#CREATED USING DSPetro VERSION 10ep.4.04 BY HB79161 ON 2/17/2020 5:24:17 PM
~WELL INFORMATION
#MNEM.UNIT       DATA                          DESCRIPTION MNEMONIC
#---------      ---------------------------   --------------------------
 STRT    .FT        9000.0000                 : START DEPTH
 STOP    .FT        10370.0000                : STOP DEPTH
 STEP    .FT        0.5000                    : STEP VALUE
 NULL    .      -999.0000                     : NULL VALUE
 DATE    .      2/17/2020                     : LAS file Creation Date
 WELL   .      LGAE-040                       : Well Name
 COMP   .      PETROPRODUCCION                : Company
 FLD    .      LAGO AGRIO                     : Field
 STATE  .      SUCUMBIOS                      : State
 COUNT  .      ECUADOR                        : Country
 UWI    .      LGAE-040                       : Unique Well Identifier (UWI)
 LOC    .      TWP        - Range       - Sec : Location
 PDAT   .      GR                             : Permanent Datum
 LGMEA  .      KB                             : Log Measured from
 DRMEA  .      KB                             : Drill Measured From
 KB     .      987                            : KB Elevation
 DF     .      -999.2500                      : DF Elevation
 GL     .      -999.2500                      : GL Elevation
 RWS    .      0                              : Def_Rw
 WST    .      0                              : Def_Rwt
 UTMZ   .      31                             : UTM Zone
 CNTY   .      LA                             : County
 PROV   .      SUCUMBIOS                      : Province
 MDEC   .      0                              : Magnetic Declination
 SRVC   .      SCH                            : Contractor
 GDAT   .      WGS 84                         : Geodatum
 LONG   .      0                              : Longitude
 LATI   .      0                              : Latitude
 COORDIN.                                     : Grid System
 XCOORD .                                     : X or East-West Coordinate
 YCOORD .                                     : Y or North-South Coordinate
~CURVE INFORMATION
#MNEM              UNIT       API CODE   Curve Type Comments
#----------  --------------- ----------  ---------- -----------
 DEPTH      .FT                        : Depth       
 BS         .inches                    : BitSize     Bit Size
 CAL        .inches                    : Caliper     
 CALI       .inch                      : Caliper     Caliper
 CALX       .inch                      : Caliper     
 DT         .us/ft                     : Sonic       
 GR         .API                       : GammaRay    GR = 0.995958 x GR + -0.122242
 M1R1       .ohm.m                     : ShalRes     
 M1R3       .ohm.m                     : MedRes      
 M1R9       .ohm.m                     : MedRes      
 M2R1       .ohm.m                     : ShalRes     
 M2R3       .ohm.m                     : MedRes      
 M2R9       .ohm.m                     : MedRes      
 NPHI       .v/v                       : Neutron     
 RHOB       .gm/cc                     : Density     Bulk Density
 RM         .ohm.m                     :             
 RS         .ohm.m                     : ShalRes     
 RT         .ohm.m                     : DeepRes     Resistivity
 SP         .mV                        : SP          Spontaneous Potential
~A  DEPTH     BS       CAL       CALI      CALX       DT        GR       M1R1      M1R3      M1R9      M2R1      M2R3      M2R9      NPHI      RHOB       RM        RS        RT        SP    
# ...
10344.0000    8.5000    3.8510 -999.0000    5.1730   67.8330 -999.0000   11.2600   77.9110   98.2580   11.2720   77.9970   98.3520   -9.9900    2.3240   77.9970   11.2720   98.3520  -39.1920 
10344.5000    8.5000    3.6250 -999.0000    5.2880   67.4720 -999.0000   11.2420   91.8800  121.4680   11.3700   93.0230  122.6960   -9.9900    2.3240   93.0230   11.3700  122.6960  -36.2870 
10345.0000    8.5000    3.4990 -999.0000    5.3520   66.8290 -999.0000   10.6720  104.8290  146.1220   11.8820  117.7410  159.5490   -9.9900    2.3240  117.7410   11.8820  159.5490  -32.4170 
10345.5000    8.5000 -999.0000 -999.0000    5.3630   66.1830 -999.0000   11.2660  140.1720  188.0630   13.5010  169.5450  213.0290   -9.9900    2.3240  169.5450   13.5010  213.0290  -27.0360 
10346.0000    8.5000 -999.0000 -999.0000    5.3630   65.8760 -999.0000   13.7410  217.5970  257.4870   17.3750  274.7760  293.4260   -9.9900    2.3240  274.7760   17.3750  293.4260  -26.3090 
10346.5000    8.5000 -999.0000 -999.0000    5.3630   66.2460 -999.0000   44.2840  714.3730  430.6140   27.7880  445.3550  364.3110   -9.9900    2.3240  445.3550   27.7880  364.3110  -28.0560 
10347.0000    8.5000 -999.0000 -999.0000    5.3630   67.2360 -999.0000  211.6660 1234.8610  605.5670   58.5480  575.6720  401.6620   -9.9900    2.3240  575.6720   58.5480  401.6620  -28.6850 
10347.5000    8.5000 -999.0000 -999.0000    5.3630   68.2400 -999.0000  241.4370 1644.4230  944.2760  111.4520  427.0600  352.1520   -9.9900    2.3240  427.0600  111.4520  352.1520  -27.8660 
10348.0000    8.5000 -999.0000 -999.0000    5.3630   68.3510 -999.0000  167.5470 1132.5040 1114.6071   99.8040  205.2680  204.3040   -9.9900    2.3240  205.2680   99.8040  204.3040  -27.8910 
10348.5000    8.5000 -999.0000 -999.0000    5.3630   67.4590 -999.0000  153.5210  307.0430  397.7850   64.1290  101.6380  102.8100   -9.9900    2.3240  101.6380   64.1290  102.8100  -29.9330 
10349.0000    8.5000 -999.0000 -999.0000 -999.0000   66.4240 -999.0000   61.6990   90.2090   90.1690   43.2190   66.2440   63.6980   -9.9900    2.3240   66.2440   43.2190   63.6980  -33.8260 
10349.5000    8.5000 -999.0000 -999.0000 -999.0000   66.1770 -999.0000   20.6710   33.5420   29.9290   32.5250   51.2270   46.8430   -9.9900    2.3240   51.2270   32.5250   46.8430  -37.4420 
10350.0000    8.5000 -999.0000 -999.0000 -999.0000 -999.0000 -999.0000   19.3610   28.4220   25.0170   31.5580   48.8840   44.2390   -9.9900    2.3240   48.8840   31.5580   44.2390  -39.0280 
10350.5000    8.5000 -999.0000 -999.0000 -999.0000 -999.0000 -999.0000   48.2030   74.6760   68.0640   41.9950   60.7610   56.3100   -9.9900 -999.0000   60.7610   41.9950   56.3100  -39.3740 
10351.0000    8.5000 -999.0000 -999.0000 -999.0000 -999.0000 -999.0000   77.0320  104.2640  104.9720   69.4910   90.9110   91.4490   -9.9900 -999.0000   90.9110   69.4910   91.4490  -39.2560 
10351.5000    8.5000 -999.0000 -999.0000 -999.0000 -999.0000 -999.0000   94.7220  116.9610  121.3850  101.1050  126.8500  132.0710   -9.9900 -999.0000  126.8500  101.1050  132.0710  -39.4670 
10352.0000    8.5000 -999.0000 -999.0000 -999.0000 -999.0000 -999.0000   91.3400  118.0670  119.6910  108.2820  147.9990  150.5580   -9.9900 -999.0000  147.9990  108.2820  150.5580  -39.7620 
10352.5000    8.5000 -999.0000 -999.0000 -999.0000 -999.0000 -999.0000   92.6060  133.5510  133.6760  111.7140  177.2810  177.5020   -9.9900 -999.0000  177.2810  111.7140  177.5020  -39.6650 
10353.0000    8.5000 -999.0000 -999.0000 -999.0000 -999.0000 -999.0000  115.7100  185.2380  184.0480  143.1580  267.2770  264.8060   -9.9900 -999.0000  267.2770  143.1580  264.8060  -39.6190 
10353.5000    8.5000 -999.0000 -999.0000 -999.0000 -999.0000 -999.0000  159.7140  276.9970  269.1020  206.3580  455.6020  434.6300   -9.9900 -999.0000  455.6020  206.3580  434.6300  -39.4290 
10354.0000    8.5000 -999.0000 -999.0000 -999.0000 -999.0000 -999.0000  179.6870  341.9020  329.4580  231.0850  621.1510  575.3630   -9.9900 -999.0000  621.1510  231.0850  575.3630  -38.5860 
10354.5000    8.5000 -999.0000 -999.0000 -999.0000 -999.0000 -999.0000  115.2840  215.5530  213.8480  166.9940  516.4620  503.3890   -9.9900 -999.0000  516.4620  166.9940  503.3890  -38.6190 
10355.0000    8.5000 -999.0000 -999.0000 -999.0000 -999.0000 -999.0000  108.8130  262.2440  264.0530  127.5150  405.6110  409.9550   -9.9900 -999.0000  405.6110  127.5150  409.9550  -41.0200 
10355.5000    8.5000 -999.0000 -999.0000 -999.0000 -999.0000 -999.0000  111.9060  266.6310  267.5810  129.2110  391.5820  393.6350   -9.9900 -999.0000  391.5820  129.2110  393.6350  -43.7070 
10356.0000    8.5000 -999.0000 -999.0000 -999.0000 -999.0000 -999.0000  155.4150  360.0420  359.4060  171.0450  456.7290  455.7050   -9.9900 -999.0000  456.7290  171.0450  455.7050  -44.2620 
10356.5000    8.5000 -999.0000 -999.0000 -999.0000 -999.0000 -999.0000  285.6310  838.2040  874.9200  232.8460  488.2120  504.7220   -9.9900 -999.0000  488.2120  232.8460  504.7220  -44.1380 
10357.0000    8.5000 -999.0000 -999.0000 -999.0000 -999.0000 -999.0000  424.9950  727.8370  866.3640  233.0790  388.0710  412.9970   -9.9900 -999.0000  388.0710  233.0790  412.9970  -45.6230 
10357.5000    8.5000 -999.0000 -999.0000 -999.0000 -999.0000 -999.0000   74.8200  114.6320  111.5600  205.8090  274.8200  293.3840   -9.9900 -999.0000  274.8200  205.8090  293.3840  -47.7630 
10358.0000    8.5000 -999.0000 -999.0000 -999.0000 -999.0000 -999.0000  198.3230  227.3970  242.5410  186.8400  212.4270  225.5850   -9.9900 -999.0000  212.4270  186.8400  225.5850  -48.5220 
10358.5000    8.5000 -999.0000 -999.0000 -999.0000 -999.0000 -999.0000  130.0350  181.8840  187.0800  104.9090  136.2420  139.1370   -9.9900 -999.0000  136.2420  104.9090  139.1370  -48.3680 
10359.0000    8.5000 -999.0000 -999.0000 -999.0000 -999.0000 -999.0000   70.4450  144.2070  144.1110   51.2910   81.7290   81.6980   -9.9900 -999.0000   81.7290   51.2910   81.6980  -47.6660 
10359.5000    8.5000 -999.0000 -999.0000 -999.0000 -999.0000 -999.0000   49.1460  212.6770  200.8280   31.5400   63.9280   64.3590   -9.9900 -999.0000   63.9280   31.5400   64.3590  -45.2050 
10360.0000    8.5000 -999.0000 -999.0000 -999.0000 -999.0000 -999.0000   26.4200   69.7970   71.6360   24.6260   63.4420   65.5600   -9.9900 -999.0000   63.4420   24.6260   65.5600  -42.1740 
10360.5000    8.5000 -999.0000 -999.0000 -999.0000 -999.0000 -999.0000   23.0180   69.2480   73.9420   22.1670   66.5130   71.3210   -9.9900 -999.0000   66.5130   22.1670   71.3210  -38.3320 
10361.0000    8.5000 -999.0000 -999.0000 -999.0000 -999.0000 -999.0000   17.7870   50.0380   59.0780   22.7120   64.3220   74.2550   -9.9900 -999.0000   64.3220   22.7120   74.2550  -33.2300 
10361.5000    8.5000 -999.0000 -999.0000 -999.0000 -999.0000 -999.0000   16.0110   35.6200   45.8630   27.6200   61.9740   76.6450   -9.9900 -999.0000   61.9740   27.6200   76.6450  -30.9750 
10362.0000    8.5000 -999.0000 -999.0000 -999.0000 -999.0000 -999.0000   75.5160  136.0900  161.6220   39.5490   63.8690   83.4940   -9.9900 -999.0000   63.8690   39.5490   83.4940  -30.0740 
10362.5000    8.5000 -999.0000 -999.0000 -999.0000 -999.0000 -999.0000  143.1140  211.1820  244.3460   52.8280   62.6630   86.7100   -9.9900 -999.0000   62.6630   52.8280   86.7100  -30.4060 
10363.0000    8.5000 -999.0000 -999.0000 -999.0000 -999.0000 -999.0000   56.9870   55.6810   82.3430   50.8240   49.7460   74.1390   -9.9900 -999.0000   49.7460   50.8240   74.1390  -29.8340 
10363.5000    8.5000 -999.0000 -999.0000 -999.0000 -999.0000 -999.0000   41.2190   38.6490   62.7400   42.8130   40.1240   65.0030   -9.9900 -999.0000   40.1240   42.8130   65.0030  -24.6800 
10364.0000    8.5000 -999.0000 -999.0000 -999.0000 -999.0000 -999.0000   37.4650   37.0760   66.9290   40.1840   39.7350   71.4430   -9.9900 -999.0000   39.7350   40.1840   71.4430  -19.6900 
10364.5000    8.5000 -999.0000 -999.0000 -999.0000 -999.0000 -999.0000   38.2650   41.5130   87.4850   39.3640   42.6940   89.7870   -9.9900 -999.0000   42.6940   39.3640   89.7870  -16.2650 
