~VERSION INFORMATION
 VERS.                 2.0:   CWLS LOG ASCII STANDARD - VERSION 2.0
 WRAP.                  NO:   SINGLE LINE PER DEPTH STEP
 CREA.                 2/17/2020 5:24:17 PM
#CREATED USING DSPetro VERSION 10ep.4.04 BY HB79161 ON 2/17/2020 5:24:17 PM
~WELL INFORMATION
#MNEM.UNIT       DATA                          DESCRIPTION MNEMONIC
#---------      ---------------------------   --------------------------
 STRT    .FT        9000.0000                 : START DEPTH
 STOP    .FT        10370.0000                : STOP DEPTH
 STEP    .FT        0.5000                    : STEP VALUE
 NULL    .      -999.0000                     : NULL VALUE
 DATE    .      2/17/2020                     : LAS file Creation Date
 WELL   .      LGAE-040                       : Well Name
 COMP   .      PETROPRODUCCION                : Company
 FLD    .      LAGO AGRIO                     : Field
 STATE  .      SUCUMBIOS                      : State
 COUNT  .      ECUADOR                        : Country
 UWI    .      LGAE-040                       : Unique Well Identifier (UWI)
 LOC    .      TWP        - Range       - Sec : Location
 PDAT   .      GR                             : Permanent Datum
 LGMEA  .      KB                             : Log Measured from
 DRMEA  .      KB                             : Drill Measured From
 KB     .      987                            : KB Elevation
 DF     .      -999.2500                      : DF Elevation
 GL     .      -999.2500                      : GL Elevation
 RWS    .      0                              : Def_Rw
 WST    .      0                              : Def_Rwt
 UTMZ   .      31                             : UTM Zone
 CNTY   .      LA                             : County
 PROV   .      SUCUMBIOS                      : Province
 MDEC   .      0                              : Magnetic Declination
 SRVC   .      SCH                            : Contractor
 GDAT   .      WGS 84                         : Geodatum
 LONG   .      0                              : Longitude
 LATI   .      0                              : Latitude
 COORDIN.                                     : Grid System
 XCOORD .                                     : X or East-West Coordinate
 YCOORD .                                     : Y or North-South Coordinate
~CURVE INFORMATION
#MNEM              UNIT       API CODE   Curve Type Comments
#----------  --------------- ----------  ---------- -----------
 DEPTH      .FT                        : Depth       
 BS         .inches                    : BitSize     Bit Size
 CAL        .inches                    : Caliper     
 CALI       .inch                      : Caliper     Caliper
 CALX       .inch                      : Caliper     
 DT         .us/ft                     : Sonic       
 GR         .API                       : GammaRay    GR = 0.995958 x GR + -0.122242
 M1R1       .ohm.m                     : ShalRes     
 M1R3       .ohm.m                     : MedRes      
 M1R9       .ohm.m                     : MedRes      
 M2R1       .ohm.m                     : ShalRes     
 M2R3       .ohm.m                     : MedRes      
 M2R9       .ohm.m                     : MedRes      
 NPHI       .v/v                       : Neutron     
 RHOB       .gm/cc                     : Density     Bulk Density
 RM         .ohm.m                     :             
 RS         .ohm.m                     : ShalRes     
 RT         .ohm.m                     : DeepRes     Resistivity
 SP         .mV                        : SP          Spontaneous Potential
~A  DEPTH     BS       CAL       CALI      CALX       DT        GR       M1R1      M1R3      M1R9      M2R1      M2R3      M2R9      NPHI      RHOB       RM        RS        RT        SP    
# ...
10260.0000    8.5000    8.7480    8.7480    8.7480   74.8670   26.2978  209.2840  174.1360  167.1350  191.0560  136.9130  137.2630    0.1143    2.3480  136.9130  191.0560  137.2630  -36.3560 
10260.5000    8.5000    8.7420    8.7420    8.7420   75.7050   28.1944  286.5560  345.9590  346.5510  240.2160  171.3280  171.4730    0.1174    2.3630  171.3280  240.2160  171.4730  -36.2130 
10261.0000    8.5000    8.7580    8.7580    8.7580   76.0450   31.4101  273.4640  217.8770  215.7850  272.0890  210.0200  208.7810    0.1216    2.3740  210.0200  272.0890  208.7810  -36.1190 
10261.5000    8.5000    8.7730    8.7730    8.7730   76.0930   33.2964  270.9730  276.1940  261.9410  269.3920  251.9470  246.1490    0.1254    2.3750  251.9470  269.3920  246.1490  -36.1520 
10262.0000    8.5000    8.7640    8.7640    8.7640   76.0350   33.1526  302.3360  288.8450  278.1600  304.2170  304.2170  287.1650    0.1283    2.3630  304.2170  304.2170  287.1650  -36.1030 
10262.5000    8.5000    8.7300    8.7300    8.7300   75.8470   32.3515  365.7600  365.0360  327.0680  364.3100  360.5030  324.9520    0.1324    2.3430  360.5030  364.3100  324.9520  -36.2280 
10263.0000    8.5000    8.6950    8.6950    8.6950   75.4190   31.4283  325.9110  295.2530  278.0160  382.3390  364.1000  309.1210    0.1361    2.3280  364.1000  382.3390  309.1210  -36.5070 
10263.5000    8.5000    8.6720    8.6720    8.6720   74.8940   29.2454  353.6170  321.0740  272.5830  451.9410  386.7170  296.3270    0.1372    2.3270  386.7170  451.9410  296.3270  -37.0510 
10264.0000    8.5000    8.6580    8.6580    8.6580   74.6010   25.6896  571.9720  628.3060  325.5850  261.3170  341.8890  268.1840    0.1359    2.3390  341.8890  261.3170  268.1840  -37.4010 
10264.5000    8.5000    8.6470    8.6470    8.6470   74.5780   22.7786 1052.3571 1501.7930  383.4840  123.2990  249.7980  226.2840    0.1343    2.3490  249.7980  123.2990  226.2840  -36.7370 
10265.0000    8.5000    8.6450    8.6450    8.6450   74.7070   21.9422  218.6190  707.5790  324.5520   64.5020  157.5920  182.2230    0.1351    2.3580  157.5920   64.5020  182.2230  -35.0890 
10265.5000    8.5000    8.6680    8.6680    8.6680   74.7150   22.2240   44.3090  113.0050  149.2250   39.4320   99.6120  137.1220    0.1396    2.3730   99.6120   39.4320  137.1220  -33.7660 
10266.0000    8.5000    8.7140    8.7140    8.7140   74.4390   21.8851   21.0770   50.6220   81.9620   33.1740   81.5830  118.4560    0.1488    2.3890   81.5830   33.1740  118.4560  -33.1380 
10266.5000    8.5000    8.7530    8.7530    8.7530   74.0740   20.2248   27.1700   60.7330   93.8640   43.8650  100.4610  135.9060    0.1569    2.3900  100.4610   43.8650  135.9060  -33.6810 
10267.0000    8.5000    8.7590    8.7590    8.7590   73.9430   18.2038  467.7990 1140.0291  358.1470  130.9990  274.9510  237.0430    0.1501    2.3760  274.9510  130.9990  237.0430  -35.2330 
10267.5000    8.5000    8.7310    8.7310    8.7310   73.9500   18.0544 10000.0000 4466.1338  556.3440 1141.6479 1120.8450  354.9780    0.1342    2.3680 1120.8450 1141.6479  354.9780  -36.9690 
10268.0000    8.5000    8.6920    8.6920    8.6920   73.6350   20.9460 10000.0000 4494.2910  662.1280 5104.3052 2425.4971  497.4110    0.1251    2.3580 2425.4971 5104.3052  497.4110  -38.1410 
10268.5000    8.5000    8.6720    8.6720    8.6720   72.7930   24.9570  299.5090  282.6870  292.5210  660.0540  560.2430  373.3100    0.1243    2.3370  560.2430  660.0540  373.3100  -38.8860 
10269.0000    8.5000    8.6880    8.6880    8.6880   71.7030   27.2918  159.5990  150.5820  231.3490  292.7320  287.1240  326.3600    0.1240    2.3260  287.1240  292.7320  326.3600  -39.6410 
10269.5000    8.5000    8.7260    8.7260    8.7260   70.7310   27.4584 1018.9030 1347.2820  627.2100  370.7930  375.8360  425.6850    0.1203    2.3320  375.8360  370.7930  425.6850  -40.7490 
10270.0000    8.5000    8.7590    8.7590    8.7590   70.0630   26.3880 1441.9840 2100.2251  821.0460  543.9990  556.5360  581.9670    0.1160    2.3420  556.5360  543.9990  581.9670  -41.5510 
10270.5000    8.5000    8.7690    8.7690    8.7690   69.9240   24.6592  457.4230  342.1740  591.4420  917.4320  898.5170  771.7100    0.1147    2.3520  898.5170  917.4320  771.7100  -41.8890 
10271.0000    8.5000    8.7510    8.7510    8.7510   70.2240   23.0764 1444.5420 1339.6750  979.8320 1455.3190 1365.0840  982.8990    0.1162    2.3640 1365.0840 1455.3190  982.8990  -42.0620 
10271.5000    8.5000    8.7160    8.7160    8.7160   70.5760   22.6166 1805.5450 1871.6980 1144.0220 1721.2679 1574.4200 1117.3719    0.1175    2.3910 1574.4200 1721.2679 1117.3719  -42.4230 
10272.0000    8.5000    8.6850    8.6850    8.6850   70.4690   23.2453 2004.6960 2367.2571 1238.9561 1789.2330 1625.5020 1171.8180    0.1166    2.4200 1625.5020 1789.2330 1171.8180  -43.0090 
10272.5000    8.5000    8.6690    8.6690    8.6690   69.9850   24.2792 2108.2791 2319.9670 1246.8690 1751.7400 1598.0540 1160.6300    0.1145    2.4190 1598.0540 1751.7400 1160.6300  -43.8610 
10273.0000    8.5000    8.6620    8.6620    8.6620   69.5330   25.1339 1402.3500 1248.7380 1044.9470 1615.7000 1481.4919 1088.6600    0.1123    2.3990 1481.4919 1615.7000 1088.6600  -45.1630 
10273.5000    8.5000    8.6560    8.6560    8.6560   69.5060   25.2115  856.8280  822.4570  870.7730 1403.7590 1267.1930  978.1860    0.1095    2.3760 1267.1930 1403.7590  978.1860  -46.9760 
10274.0000    8.5000    8.6500    8.6500    8.6500   69.8660   25.0107 1623.6510 1343.3700  906.7160 1102.5980 1006.2350  831.5370    0.1084    2.3580 1006.2350 1102.5980  831.5370  -48.5480 
10274.5000    8.5000    8.6480    8.6480    8.6480   70.3220   27.2404  984.3010  871.1750  693.9490  589.8010  601.5880  611.1870    0.1117    2.3440  601.5880  589.8010  611.1870  -50.2370 
10275.0000    8.5000    8.6480    8.6480    8.6480   70.4650   34.0712  268.7720  302.6040  385.6570  407.5060  422.5260  451.5120    0.1170    2.3430  422.5260  407.5060  451.5120  -52.4320 
10275.5000    8.5000    8.6490    8.6490    8.6490   70.3730   42.9115  397.2180  392.5280  390.0680  410.4950  402.1370  394.4940    0.1192    2.3640  402.1370  410.4950  394.4940  -55.0450 
10276.0000    8.5000    8.6500    8.6500    8.6500   70.3330   47.7658 2199.5471 1212.9520  567.2000  321.8370  323.4540  331.5400    0.1201    2.3820  323.4540  321.8370  331.5400  -57.8610 
10276.5000    8.5000    8.6500    8.6500    8.6500   70.8430   45.7631  218.1270  236.9290  266.4440  202.6380  223.7460  257.4020    0.1225    2.3760  223.7460  202.6380  257.4020  -60.0970 
10277.0000    8.5000    8.6510    8.6510    8.6510   72.1320   40.0826  134.9440  158.7140  198.9960  183.1450  204.0280  234.8800    0.1261    2.3630  204.0280  183.1450  234.8800  -61.2680 
10277.5000    8.5000    8.6540    8.6540    8.6540   74.1690   35.7806  189.2350  201.8930  225.6310  257.9010  260.0680  262.6070    0.1321    2.3590  260.0680  257.9010  262.6070  -61.1280 
10278.0000    8.5000    8.6610    8.6610    8.6610   76.7980   34.8825  351.7050  335.0350  286.9890  469.2630  434.9690  323.5800    0.1409    2.3600  434.9690  469.2630  323.5800  -60.9030 
10278.5000    8.5000    8.6680    8.6680    8.6680   79.2230   36.1537  574.4820  617.1420  363.9570  434.3700  423.6380  322.8970    0.1507    2.3630  423.6380  434.3700  322.8970  -60.8600 
10279.0000    8.5000    8.6730    8.6730    8.6730   80.4610   37.8392  339.5080  399.6030  294.2660  255.0000  257.4990  241.2910    0.1619    2.3770  257.4990  255.0000  241.2910  -60.7540 
10279.5000    8.5000    8.6730    8.6730    8.6730   80.3890   39.6832  612.8420 1419.2810  390.5470  162.9130  166.0310  172.9400    0.1758    2.4020  166.0310  162.9130  172.9400  -60.1510 
10280.0000    8.5000    8.6690    8.6690    8.6690   79.7590   42.8989  197.8510  212.3380  193.3890  122.7520  124.8990  140.3650    0.1834    2.4100  124.8990  122.7520  140.3650  -58.9960 
10280.5000    8.5000    8.6620    8.6620    8.6620   78.7480   48.5110   78.5450   81.9880  106.0540  109.6700  113.2270  133.7010    0.1790    2.3960  113.2270  109.6700  133.7010  -57.8820 
