~VERSION INFORMATION
 VERS.                 2.0:   CWLS LOG ASCII STANDARD - VERSION 2.0
 WRAP.                  NO:   SINGLE LINE PER DEPTH STEP
 CREA.                 2/17/2020 5:24:17 PM
#CREATED USING DSPetro VERSION 10ep.4.04 BY HB79161 ON 2/17/2020 5:24:17 PM
~WELL INFORMATION
#MNEM.UNIT       DATA                          DESCRIPTION MNEMONIC
#---------      ---------------------------   --------------------------
 STRT    .FT        9000.0000                 : START DEPTH
 STOP    .FT        10370.0000                : STOP DEPTH
 STEP    .FT        0.5000                    : STEP VALUE
 NULL    .      -999.0000                     : NULL VALUE
 DATE    .      2/17/2020                     : LAS file Creation Date
 WELL   .      LGAE-040                       : Well Name
 COMP   .      PETROPRODUCCION                : Company
 FLD    .      LAGO AGRIO                     : Field
 STATE  .      SUCUMBIOS                      : State
 COUNT  .      ECUADOR                        : Country
 UWI    .      LGAE-040                       : Unique Well Identifier (UWI)
 LOC    .      TWP        - Range       - Sec : Location
 PDAT   .      GR                             : Permanent Datum
 LGMEA  .      KB                             : Log Measured from
 DRMEA  .      KB                             : Drill Measured From
 KB     .      987                            : KB Elevation
 DF     .      -999.2500                      : DF Elevation
 GL     .      -999.2500                      : GL Elevation
 RWS    .      0                              : Def_Rw
 WST    .      0                              : Def_Rwt
 UTMZ   .      31                             : UTM Zone
 CNTY   .      LA                             : County
 PROV   .      SUCUMBIOS                      : Province
 MDEC   .      0                              : Magnetic Declination
 SRVC   .      SCH                            : Contractor
 GDAT   .      WGS 84                         : Geodatum
 LONG   .      0                              : Longitude
 LATI   .      0                              : Latitude
 COORDIN.                                     : Grid System
 XCOORD .                                     : X or East-West Coordinate
 YCOORD .                                     : Y or North-South Coordinate
~CURVE INFORMATION
#MNEM              UNIT       API CODE   Curve Type Comments
#----------  --------------- ----------  ---------- -----------
 DEPTH      .FT                        : Depth       
 BS         .inches                    : BitSize     Bit Size
 CAL        .inches                    : Caliper     
 CALI       .inch                      : Caliper     Caliper
 CALX       .inch                      : Caliper     
 DT         .us/ft                     : Sonic       
 GR         .API                       : GammaRay    GR = 0.995958 x GR + -0.122242
 M1R1       .ohm.m                     : ShalRes     
 M1R3       .ohm.m                     : MedRes      
 M1R9       .ohm.m                     : MedRes      
 M2R1       .ohm.m                     : ShalRes     
 M2R3       .ohm.m                     : MedRes      
 M2R9       .ohm.m                     : MedRes      
 NPHI       .v/v                       : Neutron     
 RHOB       .gm/cc                     : Density     Bulk Density
 RM         .ohm.m                     :             
 RS         .ohm.m                     : ShalRes     
 RT         .ohm.m                     : DeepRes     Resistivity
 SP         .mV                        : SP          Spontaneous Potential
~A  DEPTH     BS       CAL       CALI      CALX       DT        GR       M1R1      M1R3      M1R9      M2R1      M2R3      M2R9      NPHI      RHOB       RM        RS        RT        SP    
# ...
9567.0000    8.5000 -999.0000 -999.0000 -999.0000   73.2020  125.2573 -999.0000 -999.0000 -999.0000    9.4120   13.0350   12.5810    0.1646    2.4860   13.0350    9.4120   12.5810 -999.0000 
9567.5000    8.5000 -999.0000 -999.0000 -999.0000   75.1252  131.0850 -999.0000 -999.0000 -999.0000    9.3350   13.1830   12.7600    0.1899    2.4890   13.1830    9.3350   12.7600 -999.0000 
9568.0000    8.5000 -999.0000 -999.0000 -999.0000   75.4638  130.6172 -999.0000 -999.0000 -999.0000   10.0740   14.4040   13.9780    0.1989    2.4950   14.4040   10.0740   13.9780 -999.0000 
9568.5000    8.5000 -999.0000 -999.0000 -999.0000   73.5771  121.5110 -999.0000 -999.0000 -999.0000   12.3950   17.7090   17.2300    0.1832    2.5010   17.7090   12.3950   17.2300 -999.0000 
9569.0000    8.5000 -999.0000 -999.0000 -999.0000   71.0410  106.5885 -999.0000 -999.0000 -999.0000   16.1720   22.1290   21.4070    0.1672    2.5100   22.1290   16.1720   21.4070 -999.0000 
9569.5000    8.5000 -999.0000 -999.0000 -999.0000   69.6053   95.1841 -999.0000 -999.0000 -999.0000   17.1830   21.8320   20.9240    0.1596    2.5040   21.8320   17.1830   20.9240 -999.0000 
9570.0000    8.5000 -999.0000 -999.0000 -999.0000   68.9537   96.1039 -999.0000 -999.0000 -999.0000   13.4620   16.0400   15.1880    0.1414    2.4900   16.0400   13.4620   15.1880 -999.0000 
9570.5000    8.5000 -999.0000 -999.0000 -999.0000   68.9056  108.9621 -999.0000 -999.0000 -999.0000    9.9060   11.3460   10.6780    0.1121    2.4740   11.3460    9.9060   10.6780 -999.0000 
9571.0000    8.5000 -999.0000 -999.0000 -999.0000   69.4747  125.2003 -999.0000 -999.0000 -999.0000    8.2530    9.4410    8.8870    0.0934    2.4740    9.4410    8.2530    8.8870 -999.0000 
9571.5000    8.5000 -999.0000 -999.0000 -999.0000   70.2059  136.4118 -999.0000 -999.0000 -999.0000    7.1280    8.4180    7.9670    0.0914    2.4880    8.4180    7.1280    7.9670 -999.0000 
9572.0000    8.5000 -999.0000 -999.0000 -999.0000   71.1730  139.2874 -999.0000 -999.0000 -999.0000    6.1860    7.7500    7.4210    0.1123    2.5130    7.7500    6.1860    7.4210 -999.0000 
9572.5000    8.5000 -999.0000 -999.0000 -999.0000   73.5177  135.1919 -999.0000 -999.0000 -999.0000    5.9490    7.9670    7.7510    0.1653    2.5230    7.9670    5.9490    7.7510 -999.0000 
9573.0000    8.5000 -999.0000 -999.0000 -999.0000   75.6107  129.3049 -999.0000 -999.0000 -999.0000    6.1300    8.5840    8.4850    0.2118    2.5180    8.5840    6.1300    8.4850 -999.0000 
9573.5000    8.5000 -999.0000 -999.0000 -999.0000   75.5290  128.9751 -999.0000 -999.0000 -999.0000    5.9140    8.1870    8.1870    0.2061    2.5040    8.1870    5.9140    8.1870 -999.0000 
9574.0000    8.5000 -999.0000 -999.0000 -999.0000   75.3024  137.8713 -999.0000 -999.0000 -999.0000    5.3840    7.0450    7.0850    0.1834    2.4960    7.0450    5.3840    7.0850 -999.0000 
9574.5000    8.5000 -999.0000 -999.0000 -999.0000   74.2014  150.7432 -999.0000 -999.0000 -999.0000    5.0520    6.2700    6.3250    0.1875    2.4950    6.2700    5.0520    6.3250 -999.0000 
9575.0000    8.5000 -999.0000 -999.0000 -999.0000   74.2406  157.9676 -999.0000 -999.0000 -999.0000    4.9910    6.1800    6.2390    0.2140    2.5050    6.1800    4.9910    6.2390 -999.0000 
9575.5000    8.5000 -999.0000 -999.0000 -999.0000   76.3162  156.0254 -999.0000 -999.0000 -999.0000    5.0660    6.6620    6.7270    0.2509    2.5210    6.6620    5.0660    6.7270 -999.0000 
9576.0000    8.5000 -999.0000 -999.0000 -999.0000   77.8590  149.9672 -999.0000 -999.0000 -999.0000    4.8010    6.9270    7.0010    0.2634    2.5310    6.9270    4.8010    7.0010 -999.0000 
9576.5000    8.5000 -999.0000 -999.0000 -999.0000   78.2225  145.2852 -999.0000 -999.0000 -999.0000    4.0890    6.3330    6.4120    0.2534    2.5250    6.3330    4.0890    6.4120 -999.0000 
9577.0000    8.5000 -999.0000 -999.0000 -999.0000   78.7376  140.4924 -999.0000 -999.0000 -999.0000    3.7000    5.8080    5.9040    0.2427    2.5020    5.8080    3.7000    5.9040 -999.0000 
9577.5000    8.5000 -999.0000 -999.0000 -999.0000   77.8485  130.7986 -999.0000 -999.0000 -999.0000    4.2040    6.2460    6.3840    0.2333    2.4710    6.2460    4.2040    6.3840 -999.0000 
9578.0000    8.5000 -999.0000 -999.0000 -999.0000   77.2407  118.4186 -999.0000 -999.0000 -999.0000    7.0030    9.2910    9.5610    0.2372    2.4500    9.2910    7.0030    9.5610 -999.0000 
9578.5000    8.5000 -999.0000 -999.0000 -999.0000   78.8756  113.6076 -999.0000 -999.0000 -999.0000   16.7250   19.0250   19.7460    0.2749    2.4490   19.0250   16.7250   19.7460 -999.0000 
9579.0000    8.5000 -999.0000 -999.0000 -999.0000   80.9648  121.8145 -999.0000 -999.0000 -999.0000   26.9880   26.5420   27.9840    0.3017    2.4600   26.5420   26.9880   27.9840 -999.0000 
9579.5000    8.5000 -999.0000 -999.0000 -999.0000   79.1222  134.6248 -999.0000 -999.0000 -999.0000   17.9250   17.5130   18.6890    0.2484    2.4680   17.5130   17.9250   18.6890 -999.0000 
9580.0000    8.5000 -999.0000 -999.0000 -999.0000   74.8944  138.7545 -999.0000 -999.0000 -999.0000   15.7010   16.8250   17.9980    0.1614    2.4580   16.8250   15.7010   17.9980 -999.0000 
9580.5000    8.5000 -999.0000 -999.0000 -999.0000   72.0703  131.3931 -999.0000 -999.0000 -999.0000   20.1670   23.8720   25.4910    0.1140    2.4300   23.8720   20.1670   25.4910 -999.0000 
9581.0000    8.5000 -999.0000 -999.0000 -999.0000   70.7649  122.1580 -999.0000 -999.0000 -999.0000   26.6340   29.8590   31.2580    0.0980    2.4040   29.8590   26.6340   31.2580 -999.0000 
9581.5000    8.5000 -999.0000 -999.0000 -999.0000   71.0360  120.9165 -999.0000 -999.0000 -999.0000   26.8490   27.0140   27.8170    0.1051    2.4040   27.0140   26.8490   27.8170 -999.0000 
9582.0000    8.5000 -999.0000 -999.0000 -999.0000   72.4576  128.2802 -999.0000 -999.0000 -999.0000   20.8560   19.9350   20.3120    0.1255    2.4270   19.9350   20.8560   20.3120 -999.0000 
9582.5000    8.5000 -999.0000 -999.0000 -999.0000   74.7118  138.5023 -999.0000 -999.0000 -999.0000   14.5780   14.3690   14.4660    0.1620    2.4680   14.3690   14.5780   14.4660 -999.0000 
9583.0000    8.5000 -999.0000 -999.0000 -999.0000   76.5659  147.0882 -999.0000 -999.0000 -999.0000   11.0300   11.5730   11.6060    0.2219    2.5040   11.5730   11.0300   11.6060 -999.0000 
9583.5000    8.5000 -999.0000 -999.0000 -999.0000   77.5279  152.6352 -999.0000 -999.0000 -999.0000    9.8800   11.1010   11.1820    0.2650    2.5290   11.1010    9.8800   11.1820 -999.0000 
9584.0000    8.5000 -999.0000 -999.0000 -999.0000   77.0008  154.6196 -999.0000 -999.0000 -999.0000    9.3370   10.9480   11.1200    0.2668    2.5440   10.9480    9.3370   11.1200 -999.0000 
9584.5000    8.5000 -999.0000 -999.0000 -999.0000   77.1211  153.0540 -999.0000 -999.0000 -999.0000    8.3280    9.8730   10.1490    0.2655    2.5480    9.8730    8.3280   10.1490 -999.0000 
9585.0000    8.5000 -999.0000 -999.0000 -999.0000   78.9651  148.8717 -999.0000 -999.0000 -999.0000    7.6690    9.0480    9.4020    0.2796    2.5300    9.0480    7.6690    9.4020 -999.0000 
9585.5000    8.5000 -999.0000 -999.0000 -999.0000   80.9673  142.6594 -999.0000 -999.0000 -999.0000    7.6520    9.0270    9.4720    0.2858    2.4990    9.0270    7.6520    9.4720 -999.0000 
9586.0000    8.5000 -999.0000 -999.0000 -999.0000   81.0942  134.5483 -999.0000 -999.0000 -999.0000    7.8850    9.5000   10.0280    0.2827    2.4640    9.5000    7.8850   10.0280 -999.0000 
9586.5000    8.5000 -999.0000 -999.0000 -999.0000   80.7325  125.9020 -999.0000 -999.0000 -999.0000    7.9970   10.0980   10.7130    0.2830    2.4390   10.0980    7.9970   10.7130 -999.0000 
9587.0000    8.5000 -999.0000 -999.0000 -999.0000   80.4106  119.2493 -999.0000 -999.0000 -999.0000    7.7730   10.4590   11.1240    0.2870    2.4330   10.4590    7.7730   11.1240 -999.0000 
9587.5000    8.5000 -999.0000 -999.0000 -999.0000   79.5728  116.2790 -999.0000 -999.0000 -999.0000    7.2240   10.3800   11.0770    0.2827    2.4490   10.3800    7.2240   11.0770 -999.0000 
