~VERSION INFORMATION
 VERS.                 2.0:   CWLS LOG ASCII STANDARD - VERSION 2.0
 WRAP.                  NO:   SINGLE LINE PER DEPTH STEP
 CREA.                 2/17/2020 5:24:17 PM
#CREATED USING DSPetro VERSION 10ep.4.04 BY HB79161 ON 2/17/2020 5:24:17 PM
~WELL INFORMATION
#MNEM.UNIT       DATA                          DESCRIPTION MNEMONIC
#---------      ---------------------------   --------------------------
 STRT    .FT        9000.0000                 : START DEPTH
 STOP    .FT        10370.0000                : STOP DEPTH
 STEP    .FT        0.5000                    : STEP VALUE
 NULL    .      -999.0000                     : NULL VALUE
 DATE    .      2/17/2020                     : LAS file Creation Date
 WELL   .      LGAE-040                       : Well Name
 COMP   .      PETROPRODUCCION                : Company
 FLD    .      LAGO AGRIO                     : Field
 STATE  .      SUCUMBIOS                      : State
 COUNT  .      ECUADOR                        : Country
 UWI    .      LGAE-040                       : Unique Well Identifier (UWI)
 LOC    .      TWP        - Range       - Sec : Location
 PDAT   .      GR                             : Permanent Datum
 LGMEA  .      KB                             : Log Measured from
 DRMEA  .      KB                             : Drill Measured From
 KB     .      987                            : KB Elevation
 DF     .      -999.2500                      : DF Elevation
 GL     .      -999.2500                      : GL Elevation
 RWS    .      0                              : Def_Rw
 WST    .      0                              : Def_Rwt
 UTMZ   .      31                             : UTM Zone
 CNTY   .      LA                             : County
 PROV   .      SUCUMBIOS                      : Province
 MDEC   .      0                              : Magnetic Declination
 SRVC   .      SCH                            : Contractor
 GDAT   .      WGS 84                         : Geodatum
 LONG   .      0                              : Longitude
 LATI   .      0                              : Latitude
 COORDIN.                                     : Grid System
 XCOORD .                                     : X or East-West Coordinate
 YCOORD .                                     : Y or North-South Coordinate
~CURVE INFORMATION
#MNEM              UNIT       API CODE   Curve Type Comments
#----------  --------------- ----------  ---------- -----------
 DEPTH      .FT                        : Depth       
 BS         .inches                    : BitSize     Bit Size
 CAL        .inches                    : Caliper     
 CALI       .inch                      : Caliper     Caliper
 CALX       .inch                      : Caliper     
 DT         .us/ft                     : Sonic       
 GR         .API                       : GammaRay    GR = 0.995958 x GR + -0.122242
 M1R1       .ohm.m                     : ShalRes     
 M1R3       .ohm.m                     : MedRes      
 M1R9       .ohm.m                     : MedRes      
 M2R1       .ohm.m                     : ShalRes     
 M2R3       .ohm.m                     : MedRes      
 M2R9       .ohm.m                     : MedRes      
 NPHI       .v/v                       : Neutron     
 RHOB       .gm/cc                     : Density     Bulk Density
 RM         .ohm.m                     :             
 RS         .ohm.m                     : ShalRes     
 RT         .ohm.m                     : DeepRes     Resistivity
 SP         .mV                        : SP          Spontaneous Potential
~A  DEPTH     BS       CAL       CALI      CALX       DT        GR       M1R1      M1R3      M1R9      M2R1      M2R3      M2R9      NPHI      RHOB       RM        RS        RT        SP    
# ...
9924.0000    8.5000    9.0000    9.0000    9.0000   69.5630   76.7093 -999.0000 -999.0000 -999.0000   38.0640   38.6070   37.1280    0.1309    2.5580   38.6070   38.0640   37.1280  -11.4850 
9924.5000    8.5000    9.0000    9.0000    9.0000   70.8090   77.4157 -999.0000 -999.0000 -999.0000   47.2680   47.5680   45.3450    0.1341    2.5480   47.5680   47.2680   45.3450  -12.4750 
9925.0000    8.5000    9.0000    9.0000    9.0000   72.0020   81.8410 -999.0000 -999.0000 -999.0000   58.3670   58.6940   55.4840    0.1412    2.5370   58.6940   58.3670   55.4840  -13.1940 
9925.5000    8.5000    9.0000    9.0000    9.0000   72.7970   87.7566 -999.0000 -999.0000 -999.0000   68.4900   68.3610   65.0110    0.1472    2.5260   68.3610   68.4900   65.0110  -12.8890 
9926.0000    8.5000    9.0020    9.0020    9.0020   73.0410   92.8289 -999.0000 -999.0000 -999.0000   88.4150   87.8420   83.9330    0.1561    2.5160   87.8420   88.4150   83.9330  -12.8320 
9926.5000    8.5000    9.0020    9.0020    9.0020   72.7860   96.2499 -999.0000 -999.0000 -999.0000  115.8020  113.1360  110.6890    0.1700    2.5100  113.1360  115.8020  110.6890  -13.7260 
9927.0000    8.5000    9.0010    9.0010    9.0010   72.3970   97.9902 -999.0000 -999.0000 -999.0000  124.1160  119.5120  121.1840    0.1779    2.5150  119.5120  124.1160  121.1840  -14.7600 
9927.5000    8.5000    9.0000    9.0000    9.0000   72.1810   98.6121 -999.0000 -999.0000 -999.0000  115.9390  111.8670  114.2340    0.1781    2.5230  111.8670  115.9390  114.2340  -15.7840 
9928.0000    8.5000    9.0000    9.0000    9.0000   72.3090   99.3321 -999.0000 -999.0000 -999.0000   95.8850   96.9570   97.9500    0.1769    2.5240   96.9570   95.8850   97.9500  -16.7020 
9928.5000    8.5000    9.0000    9.0000    9.0000   72.7180  100.3785 -999.0000 -999.0000 -999.0000   71.7410   76.3600   75.9890    0.1792    2.5230   76.3600   71.7410   75.9890  -16.7910 
9929.0000    8.5000    9.0000    9.0000    9.0000   73.5240  100.4367 -999.0000 -999.0000 -999.0000   58.1340   63.4260   62.7070    0.1862    2.5360   63.4260   58.1340   62.7070  -16.3340 
9929.5000    8.5000    9.0010    9.0010    9.0010   75.0760   99.5969 -999.0000 -999.0000 -999.0000   58.1090   62.9930   62.4220    0.1963    2.5630   62.9930   58.1090   62.4220  -15.9040 
9930.0000    8.5000    9.0030    9.0030    9.0030   77.5350  101.1865 -999.0000 -999.0000 -999.0000   72.0870   75.4410   75.3050    0.2060    2.5830   75.4410   72.0870   75.3050  -15.5440 
9930.5000    8.5000    9.0030    9.0030    9.0030   80.3320  107.8723 -999.0000 -999.0000 -999.0000   97.8490   98.4340   98.6950    0.2266    2.5670   98.4340   97.8490   98.6950  -15.2060 
9931.0000    8.5000    9.0020    9.0020    9.0020   82.3760  117.5639 -999.0000 -999.0000 -999.0000  107.1510  109.0350  108.7920    0.2684    2.5380  109.0350  107.1510  108.7920  -15.2130 
9931.5000    8.5000    9.0060    9.0060    9.0060   82.7230  125.3966 -999.0000 -999.0000 -999.0000   86.0250   94.9360   94.8130    0.2963    2.5250   94.9360   86.0250   94.8130  -15.0350 
9932.0000    8.5000    9.0210    9.0210    9.0210   81.4880  128.6430 -999.0000 -999.0000 -999.0000   67.7190   80.8560   81.6840    0.2956    2.5220   80.8560   67.7190   81.6840  -14.3490 
9932.5000    8.5000    9.0400    9.0400    9.0400   79.9480  129.0778 -999.0000 -999.0000 -999.0000   68.3360   82.8070   84.1870    0.2961    2.5290   82.8070   68.3360   84.1870  -13.2360 
9933.0000    8.5000    9.0500    9.0500    9.0500   79.4440  131.0303 -999.0000 -999.0000 -999.0000   95.4690  106.7140  106.9150    0.3052    2.5450  106.7140   95.4690  106.9150  -11.9630 
9933.5000    8.5000    9.0510    9.0510    9.0510   79.9350  136.5761 -999.0000 -999.0000 -999.0000  154.3960  150.2930  145.1350    0.3010    2.5560  150.2930  154.3960  145.1350  -11.4410 
9934.0000    8.5000    9.0510    9.0510    9.0510   80.2220  142.3251 -999.0000 -999.0000 -999.0000  157.5640  157.4440  152.5900    0.2740    2.5450  157.4440  157.5640  152.5900  -11.8990 
9934.5000    8.5000    9.0510    9.0510    9.0510   79.6130  142.5739 -999.0000 -999.0000 -999.0000  133.9860  134.1460  133.8780    0.2430    2.5270  134.1460  133.9860  133.8780  -13.2770 
9935.0000    8.5000    9.0510    9.0510    9.0510   78.8570  136.1676 -999.0000 -999.0000 -999.0000  130.3140  130.6670  131.3830    0.2187    2.5540  130.6670  130.3140  131.3830  -14.7590 
9935.5000    8.5000    9.0510    9.0510    9.0510   78.9110  129.4612 -999.0000 -999.0000 -999.0000  138.4950  139.1270  140.1450    0.2059    2.5680  139.1270  138.4950  140.1450  -15.7150 
9936.0000    8.5000    9.0510    9.0510    9.0510   79.5980  130.3011 -999.0000 -999.0000 -999.0000  152.8630  153.7630  154.7800    0.2076    2.5590  153.7630  152.8630  154.7800  -16.2930 
9936.5000    8.5000    9.0510    9.0510    9.0510   79.7830  138.7671 -999.0000 -999.0000 -999.0000  180.2080  181.0030  181.2160    0.2184    2.5450  181.0030  180.2080  181.2160  -18.0360 
9937.0000    8.5000    9.0510    9.0510    9.0510   78.6210  146.4160 -999.0000 -999.0000 -999.0000  214.3980  213.8810  213.3990    0.2311    2.5340  213.8810  214.3980  213.3990  -20.5350 
9937.5000    8.5000    9.0510    9.0510    9.0510   76.3060  145.4472 -999.0000 -999.0000 -999.0000  263.7000  260.5830  259.0000    0.2317    2.5340  260.5830  263.7000  259.0000  -23.0130 
9938.0000    8.5000    9.0510    9.0510    9.0510   73.8840  135.3631 -999.0000 -999.0000 -999.0000  400.4300  370.2530  361.0310    0.2123    2.5470  370.2530  400.4300  361.0310  -25.5610 
9938.5000    8.5000    9.0510    9.0510    9.0510   72.4840  121.0911 -999.0000 -999.0000 -999.0000  696.1620  523.0850  494.4440    0.1869    2.5710  523.0850  696.1620  494.4440  -28.2250 
9939.0000    8.5000    9.0510    9.0510    9.0510   72.4810  109.0397 -999.0000 -999.0000 -999.0000  754.0340  567.8460  542.2100    0.1798    2.5880  567.8460  754.0340  542.2100  -30.3530 
9939.5000    8.5000    9.0510    9.0510    9.0510   73.1970  104.0724 -999.0000 -999.0000 -999.0000  590.1970  490.2170  480.3590    0.1850    2.5810  490.2170  590.1970  480.3590  -32.0070 
9940.0000    8.5000    9.0520    9.0520    9.0520   73.5970  106.1310 -999.0000 -999.0000 -999.0000  406.3470  394.2490  391.7270    0.1899    2.5630  394.2490  406.3470  391.7270  -33.5040 
9940.5000    8.5000    9.0540    9.0540    9.0540   73.1950  110.2150 -999.0000 -999.0000 -999.0000  289.8350  306.8910  308.6620    0.1845    2.5590  306.8910  289.8350  308.6620  -35.0570 
9941.0000    8.5000    9.0590    9.0590    9.0590   72.5280  111.2546 -999.0000 -999.0000 -999.0000  264.2780  279.7780  282.3750    0.1720    2.5800  279.7780  264.2780  282.3750  -36.5040 
9941.5000    8.5000    9.0620    9.0620    9.0620   72.5640  109.2451 -999.0000 -999.0000 -999.0000  308.4630  305.3650  304.0290    0.1624    2.6040  305.3650  308.4630  304.0290  -38.6920 
9942.0000    8.5000    9.0610    9.0610    9.0610   73.7110  108.8582 -999.0000 -999.0000 -999.0000  334.1490  316.6470  309.8900    0.1653    2.6070  316.6470  334.1490  309.8900  -43.2050 
9942.5000    8.5000    9.0570    9.0570    9.0570   75.3680  112.9115 -999.0000 -999.0000 -999.0000  289.0900  279.8850  274.0620    0.1779    2.5890  279.8850  289.0900  274.0620  -49.4470 
9943.0000    8.5000    9.0530    9.0530    9.0530   76.5010  117.7818 -999.0000 -999.0000 -999.0000  247.8950  241.9300  237.4920    0.1927    2.5780  241.9300  247.8950  237.4920  -55.0100 
9943.5000    8.5000    9.0530    9.0530    9.0530   76.9450  119.4946 -999.0000 -999.0000 -999.0000  212.7540  209.3730  206.0560    0.1980    2.5860  209.3730  212.7540  206.0560  -53.0530 
9944.0000    8.5000    9.0550    9.0550    9.0550   77.1970  121.2839 -999.0000 -999.0000 -999.0000  160.0850  160.4810  160.6390    0.1921    2.5990  160.4810  160.0850  160.6390  -43.5870 
9944.5000    8.5000    9.0560    9.0560    9.0560   77.6780  128.5643 -999.0000 -999.0000 -999.0000  120.2880  121.0120  122.7690    0.1784    2.5870  121.0120  120.2880  122.7690  -30.8690 
