~VERSION INFORMATION
 VERS.                 2.0:   CWLS LOG ASCII STANDARD - VERSION 2.0
 WRAP.                  NO:   SINGLE LINE PER DEPTH STEP
 CREA.                 2/17/2020 5:24:17 PM
#CREATED USING DSPetro VERSION 10ep.4.04 BY HB79161 ON 2/17/2020 5:24:17 PM
~WELL INFORMATION
#MNEM.UNIT       DATA                          DESCRIPTION MNEMONIC
#---------      ---------------------------   --------------------------
 STRT    .FT        9000.0000                 : START DEPTH
 STOP    .FT        10370.0000                : STOP DEPTH
 STEP    .FT        0.5000                    : STEP VALUE
 NULL    .      -999.0000                     : NULL VALUE
 DATE    .      2/17/2020                     : LAS file Creation Date
 WELL   .      LGAE-040                       : Well Name
 COMP   .      PETROPRODUCCION                : Company
 FLD    .      LAGO AGRIO                     : Field
 STATE  .      SUCUMBIOS                      : State
 COUNT  .      ECUADOR                        : Country
 UWI    .      LGAE-040                       : Unique Well Identifier (UWI)
 LOC    .      TWP        - Range       - Sec : Location
 PDAT   .      GR                             : Permanent Datum
 LGMEA  .      KB                             : Log Measured from
 DRMEA  .      KB                             : Drill Measured From
 KB     .      987                            : KB Elevation
 DF     .      -999.2500                      : DF Elevation
 GL     .      -999.2500                      : GL Elevation
 RWS    .      0                              : Def_Rw
 WST    .      0                              : Def_Rwt
 UTMZ   .      31                             : UTM Zone
 CNTY   .      LA                             : County
 PROV   .      SUCUMBIOS                      : Province
 MDEC   .      0                              : Magnetic Declination
 SRVC   .      SCH                            : Contractor
 GDAT   .      WGS 84                         : Geodatum
 LONG   .      0                              : Longitude
 LATI   .      0                              : Latitude
 COORDIN.                                     : Grid System
 XCOORD .                                     : X or East-West Coordinate
 YCOORD .                                     : Y or North-South Coordinate
~CURVE INFORMATION
#MNEM              UNIT       API CODE   Curve Type Comments
#----------  --------------- ----------  ---------- -----------
 DEPTH      .FT                        : Depth       
 BS         .inches                    : BitSize     Bit Size
 CAL        .inches                    : Caliper     
 CALI       .inch                      : Caliper     Caliper
 CALX       .inch                      : Caliper     
 DT         .us/ft                     : Sonic       
 GR         .API                       : GammaRay    GR = 0.995958 x GR + -0.122242
 M1R1       .ohm.m                     : ShalRes     
 M1R3       .ohm.m                     : MedRes      
 M1R9       .ohm.m                     : MedRes      
 M2R1       .ohm.m                     : ShalRes     
 M2R3       .ohm.m                     : MedRes      
 M2R9       .ohm.m                     : MedRes      
 NPHI       .v/v                       : Neutron     
 RHOB       .gm/cc                     : Density     Bulk Density
 RM         .ohm.m                     :             
 RS         .ohm.m                     : ShalRes     
 RT         .ohm.m                     : DeepRes     Resistivity
 SP         .mV                        : SP          Spontaneous Potential
~A  DEPTH     BS       CAL       CALI      CALX       DT        GR       M1R1      M1R3      M1R9      M2R1      M2R3      M2R9      NPHI      RHOB       RM        RS        RT        SP    
# ...
9315.0000    8.5000 -999.0000 -999.0000 -999.0000   77.7297  153.7957 -999.0000 -999.0000 -999.0000    3.0570    3.9640    4.3440    0.2681    2.5170    3.9640    3.0570    4.3440 -999.0000 
9315.5000    8.5000 -999.0000 -999.0000 -999.0000   80.3979  140.2015 -999.0000 -999.0000 -999.0000    2.7070    3.5600    3.9110    0.2669    2.4960    3.5600    2.7070    3.9110 -999.0000 
9316.0000    8.5000 -999.0000 -999.0000 -999.0000   82.9251  124.5989 -999.0000 -999.0000 -999.0000    2.5400    3.3290    3.6640    0.2633    2.4780    3.3290    2.5400    3.6640 -999.0000 
9316.5000    8.5000 -999.0000 -999.0000 -999.0000   80.5217  111.8115 -999.0000 -999.0000 -999.0000    2.3360    3.0300    3.3470    0.2532    2.4720    3.0300    2.3360    3.3470 -999.0000 
9317.0000    8.5000 -999.0000 -999.0000 -999.0000   78.6712  104.3508 -999.0000 -999.0000 -999.0000    2.1130    2.7290    3.0330    0.2394    2.4690    2.7290    2.1130    3.0330 -999.0000 
9317.5000    8.5000 -999.0000 -999.0000 -999.0000   78.1124  103.1823 -999.0000 -999.0000 -999.0000    2.0880    2.6970    3.0230    0.2298    2.4610    2.6970    2.0880    3.0230 -999.0000 
9318.0000    8.5000 -999.0000 -999.0000 -999.0000   78.8229  106.8989 -999.0000 -999.0000 -999.0000    2.2790    2.9280    3.3120    0.2296    2.4530    2.9280    2.2790    3.3120 -999.0000 
9318.5000    8.5000 -999.0000 -999.0000 -999.0000   80.2179  111.8366 -999.0000 -999.0000 -999.0000    2.4860    3.1160    3.5580    0.2394    2.4480    3.1160    2.4860    3.5580 -999.0000 
9319.0000    8.5000 -999.0000 -999.0000 -999.0000   81.0605  114.5627 -999.0000 -999.0000 -999.0000    2.4990    3.0160    3.4710    0.2450    2.4420    3.0160    2.4990    3.4710 -999.0000 
9319.5000    8.5000 -999.0000 -999.0000 -999.0000   80.4723  113.8062 -999.0000 -999.0000 -999.0000    2.3700    2.7700    3.2090    0.2358    2.4400    2.7700    2.3700    3.2090 -999.0000 
9320.0000    8.5000 -999.0000 -999.0000 -999.0000   79.5008  110.4923 -999.0000 -999.0000 -999.0000    2.2540    2.5970    3.0240    0.2264    2.4370    2.5970    2.2540    3.0240 -999.0000 
9320.5000    8.5000 -999.0000 -999.0000 -999.0000   79.1389  106.8841 -999.0000 -999.0000 -999.0000    2.2260    2.5610    2.9940    0.2288    2.4340    2.5610    2.2260    2.9940 -999.0000 
9321.0000    8.5000 -999.0000 -999.0000 -999.0000   79.7882  104.9362 -999.0000 -999.0000 -999.0000    2.2620    2.6070    3.0560    0.2445    2.4300    2.6070    2.2620    3.0560 -999.0000 
9321.5000    8.5000 -999.0000 -999.0000 -999.0000   80.3712  104.8940 -999.0000 -999.0000 -999.0000    2.3000    2.6490    3.1140    0.2565    2.4340    2.6490    2.3000    3.1140 -999.0000 
9322.0000    8.5000 -999.0000 -999.0000 -999.0000   80.2974  105.5946 -999.0000 -999.0000 -999.0000    2.3090    2.6570    3.1290    0.2553    2.4400    2.6570    2.3090    3.1290 -999.0000 
9322.5000    8.5000 -999.0000 -999.0000 -999.0000   79.7290  105.7715 -999.0000 -999.0000 -999.0000    2.2990    2.6470    3.1240    0.2456    2.4430    2.6470    2.2990    3.1240 -999.0000 
9323.0000    8.5000 -999.0000 -999.0000 -999.0000   79.3058  105.1735 -999.0000 -999.0000 -999.0000    2.2900    2.6440    3.1290    0.2410    2.4470    2.6440    2.2900    3.1290 -999.0000 
9323.5000    8.5000 -999.0000 -999.0000 -999.0000   79.0671  104.6680 -999.0000 -999.0000 -999.0000    2.2950    2.6610    3.1560    0.2405    2.4540    2.6610    2.2950    3.1560 -999.0000 
9324.0000    8.5000 -999.0000 -999.0000 -999.0000   79.0835  105.2306 -999.0000 -999.0000 -999.0000    2.3080    2.6870    3.1960    0.2389    2.4530    2.6870    2.3080    3.1960 -999.0000 
9324.5000    8.5000 -999.0000 -999.0000 -999.0000   79.0887  106.7141 -999.0000 -999.0000 -999.0000    2.3500    2.7530    3.2830    0.2349    2.4530    2.7530    2.3500    3.2830 -999.0000 
9325.0000    8.5000 -999.0000 -999.0000 -999.0000   78.9037  107.8894 -999.0000 -999.0000 -999.0000    2.4150    2.8570    3.4160    0.2297    2.4570    2.8570    2.4150    3.4160 -999.0000 
9325.5000    8.5000 -999.0000 -999.0000 -999.0000   78.3198  107.3040 -999.0000 -999.0000 -999.0000    2.4340    2.9190    3.4930    0.2232    2.4640    2.9190    2.4340    3.4930 -999.0000 
9326.0000    8.5000 -999.0000 -999.0000 -999.0000   77.4353  104.3599 -999.0000 -999.0000 -999.0000    2.4350    2.9680    3.5500    0.2171    2.4690    2.9680    2.4350    3.5500 -999.0000 
9326.5000    8.5000 -999.0000 -999.0000 -999.0000   76.6794  100.0248 -999.0000 -999.0000 -999.0000    2.4990    3.0960    3.6890    0.2175    2.4750    3.0960    2.4990    3.6890 -999.0000 
9327.0000    8.5000 -999.0000 -999.0000 -999.0000   76.4806   96.0525 -999.0000 -999.0000 -999.0000    2.6020    3.2630    3.8590    0.2235    2.4710    3.2630    2.6020    3.8590 -999.0000 
9327.5000    8.5000 -999.0000 -999.0000 -999.0000   76.6759   93.4359 -999.0000 -999.0000 -999.0000    2.7650    3.4830    4.0720    0.2308    2.4610    3.4830    2.7650    4.0720 -999.0000 
9328.0000    8.5000 -999.0000 -999.0000 -999.0000   76.6185   92.3690 -999.0000 -999.0000 -999.0000    3.0290    3.7960    4.3730    0.2303    2.4540    3.7960    3.0290    4.3730 -999.0000 
9328.5000    8.5000 -999.0000 -999.0000 -999.0000   75.9489   92.9156 -999.0000 -999.0000 -999.0000    3.2560    4.0220    4.5540    0.2181    2.4580    4.0220    3.2560    4.5540 -999.0000 
9329.0000    8.5000 -999.0000 -999.0000 -999.0000   75.0599   95.2903 -999.0000 -999.0000 -999.0000    3.3720    4.0990    4.5590    0.2000    2.4710    4.0990    3.3720    4.5590 -999.0000 
9329.5000    8.5000 -999.0000 -999.0000 -999.0000   75.2699  100.3911 -999.0000 -999.0000 -999.0000    3.4780    4.1960    4.5880    0.1904    2.4730    4.1960    3.4780    4.5880 -999.0000 
9330.0000    8.5000 -999.0000 -999.0000 -999.0000   76.4444  108.9336 -999.0000 -999.0000 -999.0000    3.5220    4.2850    4.6140    0.1880    2.4730    4.2850    3.5220    4.6140 -999.0000 
9330.5000    8.5000 -999.0000 -999.0000 -999.0000   77.9326  119.2676 -999.0000 -999.0000 -999.0000    3.3530    4.1550    4.4160    0.1870    2.4750    4.1550    3.3530    4.4160 -999.0000 
9331.0000    8.5000 -999.0000 -999.0000 -999.0000   78.2506  127.3433 -999.0000 -999.0000 -999.0000    2.9860    3.7540    3.9460    0.1836    2.4820    3.7540    2.9860    3.9460 -999.0000 
9331.5000    8.5000 -999.0000 -999.0000 -999.0000   78.0344  129.6084 -999.0000 -999.0000 -999.0000    2.7140    3.4000    3.5390    0.1874    2.4840    3.4000    2.7140    3.5390 -999.0000 
9332.0000    8.5000 -999.0000 -999.0000 -999.0000   80.4730  125.3600 -999.0000 -999.0000 -999.0000    2.7340    3.3450    3.4530    0.2146    2.4710    3.3450    2.7340    3.4530 -999.0000 
9332.5000    8.5000 -999.0000 -999.0000 -999.0000   83.5652  117.1976 -999.0000 -999.0000 -999.0000    2.9810    3.5030    3.5910    0.2784    2.4290    3.5030    2.9810    3.5910 -999.0000 
9333.0000    8.5000 -999.0000 -999.0000 -999.0000   85.4330  109.3763 -999.0000 -999.0000 -999.0000    3.1930    3.5850    3.6550    0.3216    2.3940    3.5850    3.1930    3.6550 -999.0000 
9333.5000    8.5000 -999.0000 -999.0000 -999.0000   83.6231  104.4375 -999.0000 -999.0000 -999.0000    3.2600    3.5150    3.5690    0.3002    2.3870    3.5150    3.2600    3.5690 -999.0000 
9334.0000    8.5000 -999.0000 -999.0000 -999.0000   80.5161  101.5071 -999.0000 -999.0000 -999.0000    3.3090    3.4560    3.4990    0.2602    2.4100    3.4560    3.3090    3.4990 -999.0000 
9334.5000    8.5000 -999.0000 -999.0000 -999.0000   78.6052   99.1347 -999.0000 -999.0000 -999.0000    3.3720    3.4280    3.4660    0.2440    2.4440    3.4280    3.3720    3.4660 -999.0000 
9335.0000    8.5000 -999.0000 -999.0000 -999.0000   77.0211   97.8601 -999.0000 -999.0000 -999.0000    3.3810    3.3610    3.3980    0.2286    2.4720    3.3610    3.3810    3.3980 -999.0000 
9335.5000    8.5000 -999.0000 -999.0000 -999.0000   75.4533   98.3325 -999.0000 -999.0000 -999.0000    3.3360    3.2740    3.3170    0.2042    2.4870    3.2740    3.3360    3.3170 -999.0000 
