~VERSION INFORMATION
 VERS.                 2.0:   CWLS LOG ASCII STANDARD - VERSION 2.0
 WRAP.                  NO:   SINGLE LINE PER DEPTH STEP
 CREA.                 2/17/2020 5:24:17 PM
#CREATED USING DSPetro VERSION 10ep.4.04 BY HB79161 ON 2/17/2020 5:24:17 PM
~WELL INFORMATION
#MNEM.UNIT       DATA                          DESCRIPTION MNEMONIC
#---------      ---------------------------   --------------------------
 STRT    .FT        9000.0000                 : START DEPTH
 STOP    .FT        10370.0000                : STOP DEPTH
 STEP    .FT        0.5000                    : STEP VALUE
 NULL    .      -999.0000                     : NULL VALUE
 DATE    .      2/17/2020                     : LAS file Creation Date
 WELL   .      LGAE-040                       : Well Name
 COMP   .      PETROPRODUCCION                : Company
 FLD    .      LAGO AGRIO                     : Field
 STATE  .      SUCUMBIOS                      : State
 COUNT  .      ECUADOR                        : Country
 UWI    .      LGAE-040                       : Unique Well Identifier (UWI)
 LOC    .      TWP        - Range       - Sec : Location
 PDAT   .      GR                             : Permanent Datum
 LGMEA  .      KB                             : Log Measured from
 DRMEA  .      KB                             : Drill Measured From
 KB     .      987                            : KB Elevation
 DF     .      -999.2500                      : DF Elevation
 GL     .      -999.2500                      : GL Elevation
 RWS    .      0                              : Def_Rw
 WST    .      0                              : Def_Rwt
 UTMZ   .      31                             : UTM Zone
 CNTY   .      LA                             : County
 PROV   .      SUCUMBIOS                      : Province
 MDEC   .      0                              : Magnetic Declination
 SRVC   .      SCH                            : Contractor
 GDAT   .      WGS 84                         : Geodatum
 LONG   .      0                              : Longitude
 LATI   .      0                              : Latitude
 COORDIN.                                     : Grid System
 XCOORD .                                     : X or East-West Coordinate
 YCOORD .                                     : Y or North-South Coordinate
~CURVE INFORMATION
#MNEM              UNIT       API CODE   Curve Type Comments
#----------  --------------- ----------  ---------- -----------
 DEPTH      .FT                        : Depth       
 BS         .inches                    : BitSize     Bit Size
 CAL        .inches                    : Caliper     
 CALI       .inch                      : Caliper     Caliper
 CALX       .inch                      : Caliper     
 DT         .us/ft                     : Sonic       
 GR         .API                       : GammaRay    GR = 0.995958 x GR + -0.122242
 M1R1       .ohm.m                     : ShalRes     
 M1R3       .ohm.m                     : MedRes      
 M1R9       .ohm.m                     : MedRes      
 M2R1       .ohm.m                     : ShalRes     
 M2R3       .ohm.m                     : MedRes      
 M2R9       .ohm.m                     : MedRes      
 NPHI       .v/v                       : Neutron     
 RHOB       .gm/cc                     : Density     Bulk Density
 RM         .ohm.m                     :             
 RS         .ohm.m                     : ShalRes     
 RT         .ohm.m                     : DeepRes     Resistivity
 SP         .mV                        : SP          Spontaneous Potential
~A  DEPTH     BS       CAL       CALI      CALX       DT        GR       M1R1      M1R3      M1R9      M2R1      M2R3      M2R9      NPHI      RHOB       RM        RS        RT        SP    
# ...
10092.0000    8.5000    9.6380    9.6380    9.6380   78.7550  176.4219   10.2640   13.0170   13.1810   10.5090   13.3270   13.4940    0.3839    2.5450   13.3270   10.5090   13.4940   -5.9360 
10092.5000    8.5000    9.6980    9.6980    9.6980   80.0360  172.5124    8.5110   10.7510   10.8620   10.5170   13.2830   13.4120    0.3736    2.5360   13.2830   10.5170   13.4120   -6.4360 
10093.0000    8.5000    9.7690    9.7690    9.7690   80.8360  168.3393   12.1230   14.8680   14.9750   10.7890   13.2320   13.3330    0.3579    2.5220   13.2320   10.7890   13.3330   -7.5560 
10093.5000    8.5000    9.8540    9.8540    9.8540   81.1210  166.9551   13.8220   16.4080   16.5100   10.7980   12.8200   12.9110    0.3517    2.5090   12.8200   10.7980   12.9110   -8.9870 
10094.0000    8.5000    9.9830    9.9830    9.9830   80.9370  169.8000    9.3960   10.9820   11.0810   10.7550   12.5690   12.6780    0.3577    2.5040   12.5690   10.7550   12.6780  -10.7640 
10094.5000    8.5000   10.1520   10.1520   10.1520   80.4760  176.0385   10.3500   12.1590   12.3040   11.2840   13.2560   13.4090    0.3709    2.5080   13.2560   11.2840   13.4090  -12.1070 
10095.0000    8.5000   10.3060   10.3060   10.3060   79.7500  182.9297   13.2980   15.8400   16.0810   11.6080   13.8280   14.0460    0.3759    2.5170   13.8280   11.6080   14.0460  -12.8560 
10095.5000    8.5000   10.3900   10.3900   10.3900   78.8310  187.8617    9.2980   11.1700   11.4020   10.7920   12.9650   13.2290    0.3681    2.5310   12.9650   10.7920   13.2290  -13.8410 
10096.0000    8.5000   10.3620   10.3620   10.3620   78.0170  190.2455    9.4390   11.2810   11.5510    9.7820   11.7570   12.0360    0.3550    2.5490   11.7570    9.7820   12.0360  -16.0430 
10096.5000    8.5000   10.2290   10.2290   10.2290   77.7890  191.3718    9.3560   11.2840   11.5600    9.4280   11.3900   11.6710    0.3508    2.5650   11.3900    9.4280   11.6710  -19.3520 
10097.0000    8.5000   10.0900   10.0900   10.0900   78.2980  191.7929   10.3640   13.0630   13.3920    9.4940   11.7110   11.9750    0.3558    2.5680   11.7110    9.4940   11.9750  -20.4040 
10097.5000    8.5000   10.0600   10.0600   10.0600   79.0490  188.9309   11.4840   15.6740   15.9400    9.2930   11.9330   12.1460    0.3634    2.5510   11.9330    9.2930   12.1460  -21.5020 
10098.0000    8.5000   10.1600   10.1600   10.1600   79.3890  180.5026   10.6270   14.5910   14.7780    8.5620   11.5890   11.7420    0.3673    2.5150   11.5890    8.5620   11.7420  -23.2690 
10098.5000    8.5000   10.3090   10.3090   10.3090   79.2150  169.4884    7.2070   10.3060   10.4040    7.8020   11.1540   11.2610    0.3753    2.4760   11.1540    7.8020   11.2610  -24.9670 
10099.0000    8.5000   10.4100   10.4100   10.4100   79.0370  161.1731    7.1790   10.7150   10.7730    7.6040   11.3470   11.4090    0.3931    2.4460   11.3470    7.6040   11.4090  -26.7150 
10099.5000    8.5000   10.4740   10.4740   10.4740   79.2270  157.3001    8.3010   12.5330   12.5840    8.0650   12.1780   12.2280    0.4025    2.4320   12.1780    8.0650   12.2280  -28.7540 
10100.0000    8.5000   10.5550   10.5550   10.5550   79.3890  156.7957    8.2720   12.0540   12.1220    8.7650   12.7700   12.8430    0.3908    2.4400   12.7700    8.7650   12.8430  -29.7970 
10100.5000    8.5000   10.6470   10.6470   10.6470   79.0550  158.1844    6.8550    9.1710    9.2600    9.3250   12.4640   12.5870    0.3663    2.4610   12.4640    9.3250   12.5870  -30.6030 
10101.0000    8.5000   10.7200   10.7200   10.7200   78.3220  158.6238   10.6040   12.8670   13.0280    9.7360   11.7140   11.8640    0.3549    2.5000   11.7140    9.7360   11.8640  -31.5360 
10101.5000    8.5000   10.7750   10.7750   10.7750   77.8100  155.8212   13.0900   15.1190   15.5560    9.7230   10.8000   11.0210    0.3592    2.5390   10.8000    9.7230   11.0210  -32.9450 
10102.0000    8.5000   10.8200   10.8200   10.8200   77.7830  152.0920   10.0950   11.1560   11.4940    9.5160   10.4530   10.7490    0.3708    2.5600   10.4530    9.5160   10.7490  -34.6510 
10102.5000    8.5000   10.8570   10.8570   10.8570   77.7480  151.9277   10.8300   12.9050   13.3550    9.3910   10.9500   11.3370    0.3740    2.5640   10.9500    9.3910   11.3370  -27.6640 
10103.0000    8.5000   10.8340   10.8340   10.8340   77.1160  155.8965    9.9220   12.6770   13.1880    8.8210   11.2700   11.7280    0.3687    2.5630   11.2700    8.8210   11.7280  -26.2350 
10103.5000    8.5000   10.7320   10.7320   10.7320   76.0300  160.8045    6.8670    9.4600    9.8760    7.9260   10.9180   11.3950    0.3639    2.5610   10.9180    7.9260   11.3950  -25.7810 
10104.0000    8.5000   10.6440   10.6440   10.6440   75.7180  164.4561    5.9560    8.3780    8.7500    7.6140   10.8890   11.3660    0.3693    2.5610   10.8890    7.6140   11.3660  -25.9410 
10104.5000    8.5000   10.6520   10.6520   10.6520   76.7120  166.9996   12.3580   18.7360   19.4800    7.9000   11.3760   11.8480    0.3840    2.5590   11.3760    7.9000   11.8480  -26.2430 
10105.0000    8.5000   10.7200   10.7200   10.7200   78.3340  169.0902    8.6140   12.2620   12.7230    8.0690   11.4770   11.9110    0.4008    2.5520   11.4770    8.0690   11.9110  -26.7850 
10105.5000    8.5000   10.7850   10.7850   10.7850   79.3190  170.5839    6.4860    8.9750    9.2850    8.1080   11.2200   11.6010    0.4078    2.5410   11.2200    8.1080   11.6010  -29.9100 
10106.0000    8.5000   10.8210   10.8210   10.8210   79.4800  169.6744    9.7820   12.9570   13.3520    8.2160   10.8830   11.2200    0.4029    2.5350   10.8830    8.2160   11.2200  -34.2410 
10106.5000    8.5000   10.8370   10.8370   10.8370   79.2670  164.2975    7.0290    8.7750    9.0390    8.3560   10.4460   10.7560    0.3913    2.5310   10.4460    8.3560   10.7560  -38.3180 
10107.0000    8.5000   10.8580   10.8580   10.8580   79.2180  156.7718    7.5360    8.7020    8.9700    8.7990   10.3320   10.6450    0.3767    2.5230   10.3320    8.7990   10.6450  -41.4280 
10107.5000    8.5000   10.8520   10.8520   10.8520   79.4180  153.3062   11.9430   13.7160   14.2950    9.6620   10.7900   11.1450    0.3719    2.5100   10.7900    9.6620   11.1450  -43.3650 
10108.0000    8.5000   10.8160   10.8160   10.8160   79.8670  156.1658   14.7470   16.6080   17.2030   10.1910   11.1450   11.5570    0.3776    2.5030   11.1450   10.1910   11.5570  -39.2540 
10108.5000    8.5000   10.7840   10.7840   10.7840   80.4950  161.4538    8.2630    9.0920    9.4760    9.5940   10.5890   11.0330    0.3902    2.5100   10.5890    9.5940   11.0330  -25.0700 
10109.0000    8.5000   10.7550   10.7550   10.7550   80.9980  165.8425    6.8170    7.5320    7.8880    9.1180   10.3490   10.8310    0.3936    2.5300   10.3490    9.1180   10.8310  -12.1980 
10109.5000    8.5000   10.7110   10.7110   10.7110   80.8570  169.8741   12.6680   15.7110   16.4720    9.5230   11.1650   11.7190    0.3851    2.5470   11.1650    9.5230   11.7190   -5.4260 
10110.0000    8.5000   10.7020   10.7020   10.7020   80.2500  174.4877   11.5800   14.2420   14.9540    9.7580   11.7600   12.3550    0.3757    2.5470   11.7600    9.7580   12.3550   -2.1620 
10110.5000    8.5000   10.7820   10.7820   10.7820   79.7830  178.3835    9.3470   11.4300   11.9970    9.2580   11.3150   11.8770    0.3753    2.5300   11.3150    9.2580   11.8770   -0.7770 
10111.0000    8.5000   10.9090   10.9090   10.9090   79.9080  178.9347    7.3320    8.8050    9.2220    9.0900   11.0660   11.5840    0.3779    2.5100   11.0660    9.0900   11.5840   -0.1640 
10111.5000    8.5000   10.9500   10.9500   10.9500   80.3480  174.8700    8.0400    9.4330    9.8370    9.8530   11.8210   12.3200    0.3809    2.4960   11.8210    9.8530   12.3200    0.2260 
10112.0000    8.5000   10.8670   10.8670   10.8670   80.9460  168.6429   21.5840   28.2080   29.1440   10.6670   12.6670   13.1370    0.3800    2.4840   12.6670   10.6670   13.1370    0.9790 
10112.5000    8.5000   10.8000   10.8000   10.8000   81.3900  164.9376   11.2520   13.3920   13.8170   10.2630   12.2100   12.6020    0.3721    2.4730   12.2100   10.2630   12.6020    1.5190 
