~VERSION INFORMATION
 VERS.                 2.0:   CWLS LOG ASCII STANDARD - VERSION 2.0
 WRAP.                  NO:   SINGLE LINE PER DEPTH STEP
 CREA.                 2/17/2020 5:24:17 PM
#CREATED USING DSPetro VERSION 10ep.4.04 BY HB79161 ON 2/17/2020 5:24:17 PM
~WELL INFORMATION
#MNEM.UNIT       DATA                          DESCRIPTION MNEMONIC
#---------      ---------------------------   --------------------------
 STRT    .FT        9000.0000                 : START DEPTH
 STOP    .FT        10370.0000                : STOP DEPTH
 STEP    .FT        0.5000                    : STEP VALUE
 NULL    .      -999.0000                     : NULL VALUE
 DATE    .      2/17/2020                     : LAS file Creation Date
 WELL   .      LGAE-040                       : Well Name
 COMP   .      PETROPRODUCCION                : Company
 FLD    .      LAGO AGRIO                     : Field
 STATE  .      SUCUMBIOS                      : State
 COUNT  .      ECUADOR                        : Country
 UWI    .      LGAE-040                       : Unique Well Identifier (UWI)
 LOC    .      TWP        - Range       - Sec : Location
 PDAT   .      GR                             : Permanent Datum
 LGMEA  .      KB                             : Log Measured from
 DRMEA  .      KB                             : Drill Measured From
 KB     .      987                            : KB Elevation
 DF     .      -999.2500                      : DF Elevation
 GL     .      -999.2500                      : GL Elevation
 RWS    .      0                              : Def_Rw
 WST    .      0                              : Def_Rwt
 UTMZ   .      31                             : UTM Zone
 CNTY   .      LA                             : County
 PROV   .      SUCUMBIOS                      : Province
 MDEC   .      0                              : Magnetic Declination
 SRVC   .      SCH                            : Contractor
 GDAT   .      WGS 84                         : Geodatum
 LONG   .      0                              : Longitude
 LATI   .      0                              : Latitude
 COORDIN.                                     : Grid System
 XCOORD .                                     : X or East-West Coordinate
 YCOORD .                                     : Y or North-South Coordinate
~CURVE INFORMATION
#MNEM              UNIT       API CODE   Curve Type Comments
#----------  --------------- ----------  ---------- -----------
 DEPTH      .FT                        : Depth       
 BS         .inches                    : BitSize     Bit Size
 CAL        .inches                    : Caliper     
 CALI       .inch                      : Caliper     Caliper
 CALX       .inch                      : Caliper     
 DT         .us/ft                     : Sonic       
 GR         .API                       : GammaRay    GR = 0.995958 x GR + -0.122242
 M1R1       .ohm.m                     : ShalRes     
 M1R3       .ohm.m                     : MedRes      
 M1R9       .ohm.m                     : MedRes      
 M2R1       .ohm.m                     : ShalRes     
 M2R3       .ohm.m                     : MedRes      
 M2R9       .ohm.m                     : MedRes      
 NPHI       .v/v                       : Neutron     
 RHOB       .gm/cc                     : Density     Bulk Density
 RM         .ohm.m                     :             
 RS         .ohm.m                     : ShalRes     
 RT         .ohm.m                     : DeepRes     Resistivity
 SP         .mV                        : SP          Spontaneous Potential
~A  DEPTH     BS       CAL       CALI      CALX       DT        GR       M1R1      M1R3      M1R9      M2R1      M2R3      M2R9      NPHI      RHOB       RM        RS        RT        SP    
# ...
9231.0000    8.5000 -999.0000 -999.0000 -999.0000   77.8236  104.4147 -999.0000 -999.0000 -999.0000    2.0010    2.8570    3.0890    0.2181    2.4520    2.8570    2.0010    3.0890 -999.0000 
9231.5000    8.5000 -999.0000 -999.0000 -999.0000   77.6804  105.8571 -999.0000 -999.0000 -999.0000    1.6920    2.5780    2.7800    0.2081    2.4420    2.5780    1.6920    2.7800 -999.0000 
9232.0000    8.5000 -999.0000 -999.0000 -999.0000   79.5575  107.0050 -999.0000 -999.0000 -999.0000    1.6900    2.6790    2.8890    0.2281    2.4110    2.6790    1.6900    2.8890 -999.0000 
9232.5000    8.5000 -999.0000 -999.0000 -999.0000   83.3512  107.7171 -999.0000 -999.0000 -999.0000    1.9270    3.0620    3.3090    0.2835    2.3790    3.0620    1.9270    3.3090 -999.0000 
9233.0000    8.5000 -999.0000 -999.0000 -999.0000   85.5321  107.4056 -999.0000 -999.0000 -999.0000    2.2360    3.4260    3.7180    0.3216    2.3730    3.4260    2.2360    3.7180 -999.0000 
9233.5000    8.5000 -999.0000 -999.0000 -999.0000   83.7713  105.4212 -999.0000 -999.0000 -999.0000    2.4160    3.4860    3.7960    0.3005    2.3880    3.4860    2.4160    3.7960 -999.0000 
9234.0000    8.5000 -999.0000 -999.0000 -999.0000   80.1812  102.4508 -999.0000 -999.0000 -999.0000    2.5230    3.4420    3.7550    0.2550    2.4200    3.4420    2.5230    3.7550 -999.0000 
9234.5000    8.5000 -999.0000 -999.0000 -999.0000   78.2357   99.5672 -999.0000 -999.0000 -999.0000    2.8640    3.7520    4.0870    0.2389    2.4520    3.7520    2.8640    4.0870 -999.0000 
9235.0000    8.5000 -999.0000 -999.0000 -999.0000   77.3742   97.0807 -999.0000 -999.0000 -999.0000    3.5590    4.5060    4.8780    0.2378    2.4740    4.5060    3.5590    4.8780 -999.0000 
9235.5000    8.5000 -999.0000 -999.0000 -999.0000   76.6319   95.3359 -999.0000 -999.0000 -999.0000    4.1050    4.9890    5.3410    0.2313    2.4800    4.9890    4.1050    5.3410 -999.0000 
9236.0000    8.5000 -999.0000 -999.0000 -999.0000   75.7252   95.0906 -999.0000 -999.0000 -999.0000    4.2670    4.9670    5.2430    0.2177    2.4860    4.9670    4.2670    5.2430 -999.0000 
9236.5000    8.5000 -999.0000 -999.0000 -999.0000   75.6291   96.7555 -999.0000 -999.0000 -999.0000    4.5500    5.1030    5.3000    0.2100    2.4820    5.1030    4.5500    5.3000 -999.0000 
9237.0000    8.5000 -999.0000 -999.0000 -999.0000   75.7061   99.8593 -999.0000 -999.0000 -999.0000    4.8540    5.2860    5.4050    0.2042    2.4860    5.2860    4.8540    5.4050 -999.0000 
9237.5000    8.5000 -999.0000 -999.0000 -999.0000   75.5708  103.4801 -999.0000 -999.0000 -999.0000    4.7780    5.0660    5.1120    0.1959    2.4980    5.0660    4.7780    5.1120 -999.0000 
9238.0000    8.5000 -999.0000 -999.0000 -999.0000   75.5861  107.1625 -999.0000 -999.0000 -999.0000    4.4330    4.5680    4.5640    0.1898    2.5090    4.5680    4.4330    4.5640 -999.0000 
9238.5000    8.5000 -999.0000 -999.0000 -999.0000   75.8568  110.3942 -999.0000 -999.0000 -999.0000    4.1130    4.1200    4.0920    0.1837    2.5030    4.1200    4.1130    4.0920 -999.0000 
9239.0000    8.5000 -999.0000 -999.0000 -999.0000   75.8942  112.0511 -999.0000 -999.0000 -999.0000    3.8770    3.8070    3.7760    0.1743    2.4870    3.8070    3.8770    3.7760 -999.0000 
9239.5000    8.5000 -999.0000 -999.0000 -999.0000   75.8476  112.2120 -999.0000 -999.0000 -999.0000    3.6700    3.5980    3.5800    0.1682    2.4730    3.5980    3.6700    3.5800 -999.0000 
9240.0000    8.5000 -999.0000 -999.0000 -999.0000   76.1692  112.2120 -999.0000 -999.0000 -999.0000    3.5900    3.5850    3.5910    0.1709    2.4640    3.5850    3.5900    3.5910 -999.0000 
9240.5000    8.5000 -999.0000 -999.0000 -999.0000   76.5735  111.5171 -999.0000 -999.0000 -999.0000    3.6800    3.7910    3.8390    0.1832    2.4730    3.7910    3.6800    3.8390 -999.0000 
9241.0000    8.5000 -999.0000 -999.0000 -999.0000   76.5748  108.3094 -999.0000 -999.0000 -999.0000    3.8140    4.0460    4.1420    0.1962    2.4850    4.0460    3.8140    4.1420 -999.0000 
9241.5000    8.5000 -999.0000 -999.0000 -999.0000   76.1813  103.3580 -999.0000 -999.0000 -999.0000    3.9560    4.2410    4.3770    0.2038    2.4880    4.2410    3.9560    4.3770 -999.0000 
9242.0000    8.5000 -999.0000 -999.0000 -999.0000   75.6894   99.6574 -999.0000 -999.0000 -999.0000    4.1180    4.3470    4.4970    0.2048    2.4870    4.3470    4.1180    4.4970 -999.0000 
9242.5000    8.5000 -999.0000 -999.0000 -999.0000   75.4848   99.2066 -999.0000 -999.0000 -999.0000    3.9770    4.0720    4.2040    0.2027    2.4880    4.0720    3.9770    4.2040 -999.0000 
9243.0000    8.5000 -999.0000 -999.0000 -999.0000   75.9053  102.7350 -999.0000 -999.0000 -999.0000    3.4580    3.4570    3.5460    0.2002    2.4870    3.4570    3.4580    3.5460 -999.0000 
9243.5000    8.5000 -999.0000 -999.0000 -999.0000   76.6311  109.4414 -999.0000 -999.0000 -999.0000    2.9340    2.9230    2.9760    0.1965    2.4920    2.9230    2.9340    2.9760 -999.0000 
9244.0000    8.5000 -999.0000 -999.0000 -999.0000   76.9030  115.5589 -999.0000 -999.0000 -999.0000    2.4360    2.4790    2.5060    0.1859    2.4960    2.4790    2.4360    2.5060 -999.0000 
9244.5000    8.5000 -999.0000 -999.0000 -999.0000   76.2680  116.6419 -999.0000 -999.0000 -999.0000    2.0320    2.1480    2.1640    0.1725    2.4990    2.1480    2.0320    2.1640 -999.0000 
9245.0000    8.5000 -999.0000 -999.0000 -999.0000   76.0819  112.6970 -999.0000 -999.0000 -999.0000    1.8800    2.0670    2.0800    0.1759    2.4870    2.0670    1.8800    2.0800 -999.0000 
9245.5000    8.5000 -999.0000 -999.0000 -999.0000   77.8606  108.3390 -999.0000 -999.0000 -999.0000    1.9030    2.1410    2.1580    0.2131    2.4670    2.1410    1.9030    2.1580 -999.0000 
9246.0000    8.5000 -999.0000 -999.0000 -999.0000   80.5219  107.4991 -999.0000 -999.0000 -999.0000    1.9530    2.1960    2.2200    0.2565    2.4470    2.1960    1.9530    2.2200 -999.0000 
9246.5000    8.5000 -999.0000 -999.0000 -999.0000   82.3096  109.8156 -999.0000 -999.0000 -999.0000    2.0180    2.2200    2.2560    0.2782    2.4350    2.2200    2.0180    2.2560 -999.0000 
9247.0000    8.5000 -999.0000 -999.0000 -999.0000   83.0239  112.1481 -999.0000 -999.0000 -999.0000    2.1720    2.3160    2.3660    0.2812    2.4250    2.3160    2.1720    2.3660 -999.0000 
9247.5000    8.5000 -999.0000 -999.0000 -999.0000   82.9012  112.5384 -999.0000 -999.0000 -999.0000    2.4090    2.4990    2.5700    0.2786    2.4270    2.4990    2.4090    2.5700 -999.0000 
9248.0000    8.5000 -999.0000 -999.0000 -999.0000   82.0456  112.2120 -999.0000 -999.0000 -999.0000    2.5720    2.6320    2.7260    0.2658    2.4320    2.6320    2.5720    2.7260 -999.0000 
9248.5000    8.5000 -999.0000 -999.0000 -999.0000   80.8688  113.2972 -999.0000 -999.0000 -999.0000    2.5610    2.6410    2.7550    0.2471    2.4480    2.6410    2.5610    2.7550 -999.0000 
9249.0000    8.5000 -999.0000 -999.0000 -999.0000   80.2994  115.7153 -999.0000 -999.0000 -999.0000    2.5910    2.7410    2.8830    0.2398    2.4760    2.7410    2.5910    2.8830 -999.0000 
9249.5000    8.5000 -999.0000 -999.0000 -999.0000   80.0154  118.0671 -999.0000 -999.0000 -999.0000    2.8130    3.0680    3.2490    0.2392    2.5080    3.0680    2.8130    3.2490 -999.0000 
9250.0000    8.5000 -999.0000 -999.0000 -999.0000   79.7752  120.2489 -999.0000 -999.0000 -999.0000    3.0510    3.3880    3.6090    0.2347    2.5250    3.3880    3.0510    3.6090 -999.0000 
9250.5000    8.5000 -999.0000 -999.0000 -999.0000   79.7155  122.9237 -999.0000 -999.0000 -999.0000    3.2330    3.5900    3.8390    0.2259    2.5240    3.5900    3.2330    3.8390 -999.0000 
9251.0000    8.5000 -999.0000 -999.0000 -999.0000   80.0800  125.3109 -999.0000 -999.0000 -999.0000    3.4740    3.8200    4.0970    0.2221    2.5130    3.8200    3.4740    4.0970 -999.0000 
9251.5000    8.5000 -999.0000 -999.0000 -999.0000   80.3878  125.0702 -999.0000 -999.0000 -999.0000    3.5390    3.8670    4.1550    0.2204    2.4900    3.8670    3.5390    4.1550 -999.0000 
