~VERSION INFORMATION
 VERS.                 2.0:   CWLS LOG ASCII STANDARD - VERSION 2.0
 WRAP.                  NO:   SINGLE LINE PER DEPTH STEP
 CREA.                 2/17/2020 5:24:17 PM
#CREATED USING DSPetro VERSION 10ep.4.04 BY HB79161 ON 2/17/2020 5:24:17 PM
~WELL INFORMATION
#MNEM.UNIT       DATA                          DESCRIPTION MNEMONIC
#---------      ---------------------------   --------------------------
 STRT    .FT        9000.0000                 : START DEPTH
 STOP    .FT        10370.0000                : STOP DEPTH
 STEP    .FT        0.5000                    : STEP VALUE
 NULL    .      -999.0000                     : NULL VALUE
 DATE    .      2/17/2020                     : LAS file Creation Date
 WELL   .      LGAE-040                       : Well Name
 COMP   .      PETROPRODUCCION                : Company
 FLD    .      LAGO AGRIO                     : Field
 STATE  .      SUCUMBIOS                      : State
 COUNT  .      ECUADOR                        : Country
 UWI    .      LGAE-040                       : Unique Well Identifier (UWI)
 LOC    .      TWP        - Range       - Sec : Location
 PDAT   .      GR                             : Permanent Datum
 LGMEA  .      KB                             : Log Measured from
 DRMEA  .      KB                             : Drill Measured From
 KB     .      987                            : KB Elevation
 DF     .      -999.2500                      : DF Elevation
 GL     .      -999.2500                      : GL Elevation
 RWS    .      0                              : Def_Rw
 WST    .      0                              : Def_Rwt
 UTMZ   .      31                             : UTM Zone
 CNTY   .      LA                             : County
 PROV   .      SUCUMBIOS                      : Province
 MDEC   .      0                              : Magnetic Declination
 SRVC   .      SCH                            : Contractor
 GDAT   .      WGS 84                         : Geodatum
 LONG   .      0                              : Longitude
 LATI   .      0                              : Latitude
 COORDIN.                                     : Grid System
 XCOORD .                                     : X or East-West Coordinate
 YCOORD .                                     : Y or North-South Coordinate
~CURVE INFORMATION
#MNEM              UNIT       API CODE   Curve Type Comments
#----------  --------------- ----------  ---------- -----------
 DEPTH      .FT                        : Depth       
 BS         .inches                    : BitSize     Bit Size
 CAL        .inches                    : Caliper     
 CALI       .inch                      : Caliper     Caliper
 CALX       .inch                      : Caliper     
 DT         .us/ft                     : Sonic       
 GR         .API                       : GammaRay    GR = 0.995958 x GR + -0.122242
 M1R1       .ohm.m                     : ShalRes     
 M1R3       .ohm.m                     : MedRes      
 M1R9       .ohm.m                     : MedRes      
 M2R1       .ohm.m                     : ShalRes     
 M2R3       .ohm.m                     : MedRes      
 M2R9       .ohm.m                     : MedRes      
 NPHI       .v/v                       : Neutron     
 RHOB       .gm/cc                     : Density     Bulk Density
 RM         .ohm.m                     :             
 RS         .ohm.m                     : ShalRes     
 RT         .ohm.m                     : DeepRes     Resistivity
 SP         .mV                        : SP          Spontaneous Potential
~A  DEPTH     BS       CAL       CALI      CALX       DT        GR       M1R1      M1R3      M1R9      M2R1      M2R3      M2R9      NPHI      RHOB       RM        RS        RT        SP    
# ...
9147.0000    8.5000 -999.0000 -999.0000 -999.0000   65.2343   55.3315 -999.0000 -999.0000 -999.0000   11.6910   29.8430   27.7970    0.1335    2.4720   29.8430   11.6910   27.7970 -999.0000 
9147.5000    8.5000 -999.0000 -999.0000 -999.0000   67.7383   51.5795 -999.0000 -999.0000 -999.0000   21.0540   60.0470   58.0370    0.1821    2.4520   60.0470   21.0540   58.0370 -999.0000 
9148.0000    8.5000 -999.0000 -999.0000 -999.0000   69.4132   50.1416 -999.0000 -999.0000 -999.0000   53.2150  116.3040  118.9510    0.2135    2.4440  116.3040   53.2150  118.9510 -999.0000 
9148.5000    8.5000 -999.0000 -999.0000 -999.0000   67.3451   48.4174 -999.0000 -999.0000 -999.0000  106.4630  142.9820  144.1930    0.1858    2.4580  142.9820  106.4630  144.1930 -999.0000 
9149.0000    8.5000 -999.0000 -999.0000 -999.0000   63.9617   46.5334 -999.0000 -999.0000 -999.0000   73.7350   72.2030   66.1280    0.1369    2.4780   72.2030   73.7350   66.1280 -999.0000 
9149.5000    8.5000 -999.0000 -999.0000 -999.0000   62.3591   46.0427 -999.0000 -999.0000 -999.0000   65.0630   49.8760   46.3180    0.1135    2.4900   49.8760   65.0630   46.3180 -999.0000 
9150.0000    8.5000 -999.0000 -999.0000 -999.0000   61.9788   47.0366 -999.0000 -999.0000 -999.0000   74.0660   56.4840   52.0640    0.1070    2.4990   56.4840   74.0660   52.0640 -999.0000 
9150.5000    8.5000 -999.0000 -999.0000 -999.0000   62.0255   48.5247 -999.0000 -999.0000 -999.0000   67.8300   62.6010   57.8260    0.1058    2.5050   62.6010   67.8300   57.8260 -999.0000 
9151.0000    8.5000 -999.0000 -999.0000 -999.0000   62.1916   49.9271 -999.0000 -999.0000 -999.0000   55.6300   58.1430   55.2710    0.1063    2.5090   58.1430   55.6300   55.2710 -999.0000 
9151.5000    8.5000 -999.0000 -999.0000 -999.0000   62.6149   50.2797 -999.0000 -999.0000 -999.0000   42.1200   53.7190   51.3540    0.1133    2.5100   53.7190   42.1200   51.3540 -999.0000 
9152.0000    8.5000 -999.0000 -999.0000 -999.0000   63.2368   47.9963 -999.0000 -999.0000 -999.0000   35.5270   52.6240   50.8940    0.1284    2.5030   52.6240   35.5270   50.8940 -999.0000 
9152.5000    8.5000 -999.0000 -999.0000 -999.0000   63.5374   43.3269 -999.0000 -999.0000 -999.0000   31.4500   51.5170   50.4240    0.1381    2.4780   51.5170   31.4500   50.4240 -999.0000 
9153.0000    8.5000 -999.0000 -999.0000 -999.0000   63.5021   39.3398 -999.0000 -999.0000 -999.0000   29.1650   51.3370   50.9220    0.1378    2.4470   51.3370   29.1650   50.9220 -999.0000 
9153.5000    8.5000 -999.0000 -999.0000 -999.0000   63.4298   38.8822 -999.0000 -999.0000 -999.0000   30.1170   55.4330   55.2160    0.1326    2.4320   55.4330   30.1170   55.2160 -999.0000 
9154.0000    8.5000 -999.0000 -999.0000 -999.0000   63.2246   41.4896 -999.0000 -999.0000 -999.0000   34.9840   65.1030   65.1120    0.1279    2.4500   65.1030   34.9840   65.1120 -999.0000 
9154.5000    8.5000 -999.0000 -999.0000 -999.0000   63.0743   44.0914 -999.0000 -999.0000 -999.0000   42.7830   75.7580   75.7130    0.1273    2.4770   75.7580   42.7830   75.7130 -999.0000 
9155.0000    8.5000 -999.0000 -999.0000 -999.0000   62.7601   44.5033 -999.0000 -999.0000 -999.0000   48.2360   77.3620   77.0540    0.1291    2.5020   77.3620   48.2360   77.0540 -999.0000 
9155.5000    8.5000 -999.0000 -999.0000 -999.0000   62.5216   43.3109 -999.0000 -999.0000 -999.0000   47.7970   68.8420   68.9010    0.1305    2.5090   68.8420   47.7970   68.9010 -999.0000 
9156.0000    8.5000 -999.0000 -999.0000 -999.0000   62.7543   42.1355 -999.0000 -999.0000 -999.0000   45.3980   60.9920   61.8870    0.1314    2.4900   60.9920   45.3980   61.8870 -999.0000 
9156.5000    8.5000 -999.0000 -999.0000 -999.0000   63.3520   41.3824 -999.0000 -999.0000 -999.0000   45.0880   59.3560   60.7270    0.1329    2.4570   59.3560   45.0880   60.7270 -999.0000 
9157.0000    8.5000 -999.0000 -999.0000 -999.0000   63.7733   40.5573 -999.0000 -999.0000 -999.0000   47.1340   62.3940   64.0440    0.1352    2.4350   62.3940   47.1340   64.0440 -999.0000 
9157.5000    8.5000 -999.0000 -999.0000 -999.0000   64.0011   40.0552 -999.0000 -999.0000 -999.0000   47.7420   63.9980   65.7460    0.1345    2.4170   63.9980   47.7420   65.7460 -999.0000 
9158.0000    8.5000 -999.0000 -999.0000 -999.0000   63.6732   41.2466 -999.0000 -999.0000 -999.0000   44.9620   61.0960   62.9400    0.1284    2.4260   61.0960   44.9620   62.9400 -999.0000 
9158.5000    8.5000 -999.0000 -999.0000 -999.0000   63.0914   44.4280 -999.0000 -999.0000 -999.0000   38.9690   52.7710   54.8960    0.1198    2.4570   52.7710   38.9690   54.8960 -999.0000 
9159.0000    8.5000 -999.0000 -999.0000 -999.0000   62.5922   47.6563 -999.0000 -999.0000 -999.0000   29.4060   38.5720   40.6050    0.1160    2.4980   38.5720   29.4060   40.6050 -999.0000 
9159.5000    8.5000 -999.0000 -999.0000 -999.0000   61.8255   49.1101 -999.0000 -999.0000 -999.0000   22.7910   28.1950   29.7100    0.1109    2.5350   28.1950   22.7910   29.7100 -999.0000 
9160.0000    8.5000 -999.0000 -999.0000 -999.0000   60.6478   50.1268 -999.0000 -999.0000 -999.0000   22.5850   26.0090   27.1490    0.0965    2.5630   26.0090   22.5850   27.1490 -999.0000 
9160.5000    8.5000 -999.0000 -999.0000 -999.0000   60.0150   54.6171 -999.0000 -999.0000 -999.0000   28.5180   30.6740   31.6010    0.0789    2.5810   30.6740   28.5180   31.6010 -999.0000 
9161.0000    8.5000 -999.0000 -999.0000 -999.0000   60.9842   64.7401 -999.0000 -999.0000 -999.0000   34.5250   35.7870   36.5310    0.0736    2.5960   35.7870   34.5250   36.5310 -999.0000 
9161.5000    8.5000 -999.0000 -999.0000 -999.0000   63.1831   77.8117 -999.0000 -999.0000 -999.0000   30.5810   32.2540   32.7860    0.0782    2.5990   32.2540   30.5810   32.7860 -999.0000 
9162.0000    8.5000 -999.0000 -999.0000 -999.0000   65.4290   88.3454 -999.0000 -999.0000 -999.0000   22.5130   25.2700   25.6430    0.0848    2.5850   25.2700   22.5130   25.6430 -999.0000 
9162.5000    8.5000 -999.0000 -999.0000 -999.0000   66.8699   93.1119 -999.0000 -999.0000 -999.0000   18.2130   21.9440   22.2570    0.0873    2.5550   21.9440   18.2130   22.2570 -999.0000 
9163.0000    8.5000 -999.0000 -999.0000 -999.0000   68.0278   93.5398 -999.0000 -999.0000 -999.0000   17.6860   22.2250   22.5420    0.0977    2.5280   22.2250   17.6860   22.5420 -999.0000 
9163.5000    8.5000 -999.0000 -999.0000 -999.0000   69.9310   92.9658 -999.0000 -999.0000 -999.0000   19.3560   24.3500   24.7150    0.1298    2.5170   24.3500   19.3560   24.7150 -999.0000 
9164.0000    8.5000 -999.0000 -999.0000 -999.0000   71.4976   92.5995 -999.0000 -999.0000 -999.0000   20.8980   25.6410   26.0490    0.1587    2.5160   25.6410   20.8980   26.0490 -999.0000 
9164.5000    8.5000 -999.0000 -999.0000 -999.0000   71.2617   91.2062 -999.0000 -999.0000 -999.0000   21.0530   25.2640   25.6030    0.1607    2.5230   25.2640   21.0530   25.6030 -999.0000 
9165.0000    8.5000 -999.0000 -999.0000 -999.0000   69.9843   87.7417 -999.0000 -999.0000 -999.0000   20.6180   24.6270   24.8320    0.1493    2.5290   24.6270   20.6180   24.8320 -999.0000 
9165.5000    8.5000 -999.0000 -999.0000 -999.0000   68.7466   82.3910 -999.0000 -999.0000 -999.0000   20.3800   24.4280   24.4190    0.1421    2.5300   24.4280   20.3800   24.4190 -999.0000 
9166.0000    8.5000 -999.0000 -999.0000 -999.0000   67.4947   76.1741 -999.0000 -999.0000 -999.0000   20.5900   24.4830   24.1550    0.1360    2.5280   24.4830   20.5900   24.1550 -999.0000 
9166.5000    8.5000 -999.0000 -999.0000 -999.0000   66.3510   71.4487 -999.0000 -999.0000 -999.0000   21.9410   25.2110   24.5720    0.1298    2.5320   25.2110   21.9410   24.5720 -999.0000 
9167.0000    8.5000 -999.0000 -999.0000 -999.0000   66.3594   70.9090 -999.0000 -999.0000 -999.0000   25.1020   27.2160   26.3450    0.1280    2.5220   27.2160   25.1020   26.3450 -999.0000 
9167.5000    8.5000 -999.0000 -999.0000 -999.0000   67.2957   74.2354 -999.0000 -999.0000 -999.0000   28.3160   29.1720   27.9610    0.1271    2.4970   29.1720   28.3160   27.9610 -999.0000 
