~VERSION INFORMATION
 VERS.                 2.0:   CWLS LOG ASCII STANDARD - VERSION 2.0
 WRAP.                  NO:   SINGLE LINE PER DEPTH STEP
 CREA.                 2/17/2020 5:24:17 PM
#CREATED USING DSPetro VERSION 10ep.4.04 BY HB79161 ON 2/17/2020 5:24:17 PM
~WELL INFORMATION
#MNEM.UNIT       DATA                          DESCRIPTION MNEMONIC
#---------      ---------------------------   --------------------------
 STRT    .FT        9000.0000                 : START DEPTH
 STOP    .FT        10370.0000                : STOP DEPTH
 STEP    .FT        0.5000                    : STEP VALUE
 NULL    .      -999.0000                     : NULL VALUE
 DATE    .      2/17/2020                     : LAS file Creation Date
 WELL   .      LGAE-040                       : Well Name
 COMP   .      PETROPRODUCCION                : Company
 FLD    .      LAGO AGRIO                     : Field
 STATE  .      SUCUMBIOS                      : State
 COUNT  .      ECUADOR                        : Country
 UWI    .      LGAE-040                       : Unique Well Identifier (UWI)
 LOC    .      TWP        - Range       - Sec : Location
 PDAT   .      GR                             : Permanent Datum
 LGMEA  .      KB                             : Log Measured from
 DRMEA  .      KB                             : Drill Measured From
 KB     .      987                            : KB Elevation
 DF     .      -999.2500                      : DF Elevation
 GL     .      -999.2500                      : GL Elevation
 RWS    .      0                              : Def_Rw
 WST    .      0                              : Def_Rwt
 UTMZ   .      31                             : UTM Zone
 CNTY   .      LA                             : County
 PROV   .      SUCUMBIOS                      : Province
 MDEC   .      0                              : Magnetic Declination
 SRVC   .      SCH                            : Contractor
 GDAT   .      WGS 84                         : Geodatum
 LONG   .      0                              : Longitude
 LATI   .      0                              : Latitude
 COORDIN.                                     : Grid System
 XCOORD .                                     : X or East-West Coordinate
 YCOORD .                                     : Y or North-South Coordinate
~CURVE INFORMATION
#MNEM              UNIT       API CODE   Curve Type Comments
#----------  --------------- ----------  ---------- -----------
 DEPTH      .FT                        : Depth       
 BS         .inches                    : BitSize     Bit Size
 CAL        .inches                    : Caliper     
 CALI       .inch                      : Caliper     Caliper
 CALX       .inch                      : Caliper     
 DT         .us/ft                     : Sonic       
 GR         .API                       : GammaRay    GR = 0.995958 x GR + -0.122242
 M1R1       .ohm.m                     : ShalRes     
 M1R3       .ohm.m                     : MedRes      
 M1R9       .ohm.m                     : MedRes      
 M2R1       .ohm.m                     : ShalRes     
 M2R3       .ohm.m                     : MedRes      
 M2R9       .ohm.m                     : MedRes      
 NPHI       .v/v                       : Neutron     
 RHOB       .gm/cc                     : Density     Bulk Density
 RM         .ohm.m                     :             
 RS         .ohm.m                     : ShalRes     
 RT         .ohm.m                     : DeepRes     Resistivity
 SP         .mV                        : SP          Spontaneous Potential
~A  DEPTH     BS       CAL       CALI      CALX       DT        GR       M1R1      M1R3      M1R9      M2R1      M2R3      M2R9      NPHI      RHOB       RM        RS        RT        SP    
# ...
10176.0000    8.5000    8.6900    8.6900    8.6900   73.7940  100.2747  162.8980  167.3450  164.0870  135.4300  135.0470  134.3090    0.2409    2.4690  135.0470  135.4300  134.3090  -36.0690 
10176.5000    8.5000    8.6860    8.6860    8.6860   73.5550   89.1830  104.9530  102.0400  102.0090  108.2290  105.9370  105.9040    0.2129    2.4460  105.9370  108.2290  105.9040  -30.3160 
10177.0000    8.5000    8.6840    8.6840    8.6840   72.6120   82.1228   87.8020   82.0950   82.2010   96.7470   90.6490   90.7780    0.1922    2.4250   90.6490   96.7470   90.7780  -27.7320 
10177.5000    8.5000    8.6830    8.6830    8.6830   70.9600   74.6736  128.6940  133.2920  133.9600   95.2250   93.7440   94.0750    0.1709    2.4250   93.7440   95.2250   94.0750  -27.4610 
10178.0000    8.5000    8.6820    8.6820    8.6820   69.4770   63.9881   99.7200   95.7420   98.3180  118.8610  118.8610  118.9570    0.1445    2.4310  118.8610  118.8610  118.9570  -27.9890 
10178.5000    8.5000    8.6830    8.6830    8.6830   68.8160   51.6548  241.8430  254.5660  223.9050  178.3500  177.8650  171.6570    0.1249    2.4250  177.8650  178.3500  171.6570  -29.0220 
10179.0000    8.5000    8.6830    8.6830    8.6830   68.9150   41.5330  321.2560  312.4010  253.3830  234.2190  228.6430  206.4170    0.1158    2.4110  228.6430  234.2190  206.4170  -30.2380 
10179.5000    8.5000    8.6860    8.6860    8.6860   69.2050   36.8076  139.7260  137.6630  142.4020  261.0220  247.0630  215.0390    0.1126    2.4050  247.0630  261.0220  215.0390  -32.2330 
10180.0000    8.5000    8.6940    8.6940    8.6940   69.6480   39.2930  275.5010  256.6170  211.1480  416.3470  373.3390  259.6540    0.1146    2.4070  373.3390  416.3470  259.6540  -33.5330 
10180.5000    8.5000    8.7040    8.7040    8.7040   70.4870   50.2352 1754.5580 1748.2080  479.1540  334.4560  315.6640  237.6170    0.1247    2.4060  315.6640  334.4560  237.6170  -32.4020 
10181.0000    8.5000    8.7040    8.7040    8.7040   72.0040   68.6016 1727.1550 1242.9139  454.4640  147.4940  139.6890  142.6600    0.1408    2.3980  139.6890  147.4940  142.6600  -30.3640 
10181.5000    8.5000    8.6980    8.6980    8.6980   74.1470   88.6443  174.3400  175.9040  173.3010   65.9440   68.9930   80.1170    0.1627    2.3900   68.9930   65.9440   80.1170  -28.8690 
10182.0000    8.5000    8.6990    8.6990    8.6990   76.5580  104.1112   38.2140   42.5990   50.9310   45.5630   50.6990   59.8750    0.1999    2.3900   50.6990   45.5630   59.8750  -28.1030 
10182.5000    8.5000    8.7060    8.7060    8.7060   78.4500  114.3060   39.2050   44.4830   52.0630   40.1270   45.5200   53.2000    0.2548    2.4000   45.5200   40.1270   53.2000  -27.3430 
10183.0000    8.5000    8.7060    8.7060    8.7060   78.8950  120.3162   34.0300   37.4230   43.3880   40.7120   44.7020   51.3290    0.3043    2.4140   44.7020   40.7120   51.3290  -26.5550 
10183.5000    8.5000    8.6970    8.6970    8.6970   77.4160  118.3455   30.9110   31.4590   36.1590   46.8070   47.4090   53.3410    0.3265    2.4260   47.4090   46.8070   53.3410  -28.3170 
10184.0000    8.5000    8.6880    8.6880    8.6880   74.4950  104.0358  105.3250  100.6310  113.3850   57.9610   56.5110   61.7510    0.3068    2.4320   56.5110   57.9610   61.7510  -30.6140 
10184.5000    8.5000    8.6860    8.6860    8.6860   71.4710   80.9748  161.1450  153.8670  173.6410   79.0240   77.2320   81.9140    0.2396    2.4220   77.2320   79.0240   81.9140  -32.5220 
10185.0000    8.5000    8.6900    8.6900    8.6900   69.4960   59.2079   83.9110   74.3520   79.4020  129.0430  128.2230  126.7670    0.1761    2.3980  128.2230  129.0430  126.7670  -34.7610 
10185.5000    8.5000    8.6960    8.6960    8.6960   68.7590   46.8746  246.3960  225.6960  218.5820  264.9650  261.8450  241.4570    0.1427    2.3910  261.8450  264.9650  241.4570  -37.5010 
10186.0000    8.5000    8.7020    8.7020    8.7020   68.6270   45.1412  555.9460 1694.1730  761.9440  405.8120  399.3260  347.1510    0.1340    2.3930  399.3260  405.8120  347.1510  -39.1390 
10186.5000    8.5000    8.7010    8.7010    8.7010   68.4530   48.5041  758.8970 1760.6080  852.6750  484.3090  471.4920  406.1950    0.1403    2.3930  471.4920  484.3090  406.1950  -40.0440 
10187.0000    8.5000    8.6950    8.6950    8.6950   68.0680   49.2379  186.8650  157.0300  175.6660  310.5310  304.3500  285.8540    0.1502    2.3910  304.3500  310.5310  285.8540  -41.1160 
10187.5000    8.5000    8.6900    8.6900    8.6900   67.6920   43.9955  266.1440  280.2620  267.5760  198.0000  197.3310  206.9740    0.1486    2.3830  197.3310  198.0000  206.9740  -41.9120 
10188.0000    8.5000    8.6900    8.6900    8.6900   67.4870   36.3238  326.6080  334.9320  333.5690  241.7260  241.1260  266.0590    0.1333    2.3710  241.1260  241.7260  266.0590  -42.3510 
10188.5000    8.5000    8.6920    8.6920    8.6920   67.4390   31.8517  272.6450  260.8730  311.3560  726.3970  699.0100  554.4200    0.1180    2.3630  699.0100  726.3970  554.4200  -42.7820 
10189.0000    8.5000    8.6960    8.6960    8.6960   67.4440   31.9658 2184.8420 2149.5271 1122.8580 1511.5500 1435.6530  904.6330    0.1102    2.3650 1435.6530 1511.5500  904.6330  -43.4070 
10189.5000    8.5000    8.6980    8.6980    8.6980   67.6180   33.5098 2599.4700 2451.1311 1198.1210 1456.1860 1382.7209  897.5360    0.1108    2.3680 1382.7209 1456.1860  897.5360  -44.1920 
10190.0000    8.5000    8.6950    8.6950    8.6950   68.2880   33.6798  676.9080  671.9930  666.0250  580.7900  587.2710  626.0590    0.1190    2.3690  587.2710  580.7900  626.0590  -44.7190 
10190.5000    8.5000    8.6910    8.6910    8.6910   69.6960   32.8000  414.2130  460.9610  585.2490  478.3100  524.8610  628.5650    0.1335    2.3720  524.8610  478.3100  628.5650  -44.8190 
10191.0000    8.5000    8.6880    8.6880    8.6880   71.2880   31.8391 2556.6599 1640.7430 1042.0530  709.6540  739.1060  752.0020    0.1519    2.3900  739.1060  709.6540  752.0020  -44.7430 
10191.5000    8.5000    8.6850    8.6850    8.6850   72.1230   30.0944  503.4030  620.7870  710.6690  826.3820  829.5850  796.4290    0.1717    2.4190  829.5850  826.3820  796.4290  -44.6880 
10192.0000    8.5000    8.6800    8.6800    8.6800   71.7070   26.5557  202.1950  268.8930  437.2290  669.0390  705.8990  738.5410    0.1779    2.4340  705.8990  669.0390  738.5410  -44.5080 
10192.5000    8.5000    8.6770    8.6770    8.6770   70.5370   21.6512 2104.0540 1711.9590 1001.0390  733.7070  728.5840  723.3310    0.1501    2.4230  728.5840  733.7070  723.3310  -44.6640 
10193.0000    8.5000    8.6750    8.6750    8.6750   69.2560   16.8105 2407.4561 2320.4551 1078.1050 1083.9950 1073.3870  801.6990    0.1131    2.3980 1073.3870 1083.9950  801.6990  -44.4770 
10193.5000    8.5000    8.6720    8.6720    8.6720   68.2300   13.0893  417.9980  408.7090  512.4320  956.5720  977.3960  747.7180    0.0912    2.3780  977.3960  956.5720  747.7180  -43.0900 
10194.0000    8.5000    8.6730    8.6730    8.6730   67.5370   10.4374 1576.5389 1752.5909  902.4430  439.2390  449.8910  511.6680    0.0852    2.3670  449.8910  439.2390  511.6680  -41.5480 
10194.5000    8.5000    8.6830    8.6830    8.6830   67.4060    8.6755 1286.8831 1368.4399  797.7910  331.2910  335.3700  424.0610    0.0866    2.3640  335.3700  331.2910  424.0610  -41.0830 
10195.0000    8.5000    8.7010    8.7010    8.7010   67.8860    8.8386  201.1460  197.4890  291.4210  418.0740  412.1210  450.3710    0.0881    2.3700  412.1210  418.0740  450.3710  -40.6630 
10195.5000    8.5000    8.7220    8.7220    8.7220   68.5960   12.2940 1577.7690 1609.2980  808.5310  684.2860  632.6720  512.0530    0.0874    2.3750  632.6720  684.2860  512.0530  -38.7370 
10196.0000    8.5000    8.7400    8.7400    8.7400   68.9070   18.9273  358.4170  287.5330  331.3570  737.1100  676.9680  491.9170    0.0864    2.3740  676.9680  737.1100  491.9170  -36.5620 
10196.5000    8.5000    8.7530    8.7530    8.7530   68.5600   27.5131  987.2580  808.6480  682.6610 1077.5260 1023.7110  740.0440    0.0891    2.3720 1023.7110 1077.5260  740.0440  -35.6040 
