~VERSION INFORMATION
 VERS.                 2.0:   CWLS LOG ASCII STANDARD - VERSION 2.0
 WRAP.                  NO:   SINGLE LINE PER DEPTH STEP
 CREA.                 2/17/2020 5:24:17 PM
#CREATED USING DSPetro VERSION 10ep.4.04 BY HB79161 ON 2/17/2020 5:24:17 PM
~WELL INFORMATION
#MNEM.UNIT       DATA                          DESCRIPTION MNEMONIC
#---------      ---------------------------   --------------------------
 STRT    .FT        9000.0000                 : START DEPTH
 STOP    .FT        10370.0000                : STOP DEPTH
 STEP    .FT        0.5000                    : STEP VALUE
 NULL    .      -999.0000                     : NULL VALUE
 DATE    .      2/17/2020                     : LAS file Creation Date
 WELL   .      LGAE-040                       : Well Name
 COMP   .      PETROPRODUCCION                : Company
 FLD    .      LAGO AGRIO                     : Field
 STATE  .      SUCUMBIOS                      : State
 COUNT  .      ECUADOR                        : Country
 UWI    .      LGAE-040                       : Unique Well Identifier (UWI)
 LOC    .      TWP        - Range       - Sec : Location
 PDAT   .      GR                             : Permanent Datum
 LGMEA  .      KB                             : Log Measured from
 DRMEA  .      KB                             : Drill Measured From
 KB     .      987                            : KB Elevation
 DF     .      -999.2500                      : DF Elevation
 GL     .      -999.2500                      : GL Elevation
 RWS    .      0                              : Def_Rw
 WST    .      0                              : Def_Rwt
 UTMZ   .      31                             : UTM Zone
 CNTY   .      LA                             : County
 PROV   .      SUCUMBIOS                      : Province
 MDEC   .      0                              : Magnetic Declination
 SRVC   .      SCH                            : Contractor
 GDAT   .      WGS 84                         : Geodatum
 LONG   .      0                              : Longitude
 LATI   .      0                              : Latitude
 COORDIN.                                     : Grid System
 XCOORD .                                     : X or East-West Coordinate
 YCOORD .                                     : Y or North-South Coordinate
~CURVE INFORMATION
#MNEM              UNIT       API CODE   Curve Type Comments
#----------  --------------- ----------  ---------- -----------
 DEPTH      .FT                        : Depth       
 BS         .inches                    : BitSize     Bit Size
 CAL        .inches                    : Caliper     
 CALI       .inch                      : Caliper     Caliper
 CALX       .inch                      : Caliper     
 DT         .us/ft                     : Sonic       
 GR         .API                       : GammaRay    GR = 0.995958 x GR + -0.122242
 M1R1       .ohm.m                     : ShalRes     
 M1R3       .ohm.m                     : MedRes      
 M1R9       .ohm.m                     : MedRes      
 M2R1       .ohm.m                     : ShalRes     
 M2R3       .ohm.m                     : MedRes      
 M2R9       .ohm.m                     : MedRes      
 NPHI       .v/v                       : Neutron     
 RHOB       .gm/cc                     : Density     Bulk Density
 RM         .ohm.m                     :             
 RS         .ohm.m                     : ShalRes     
 RT         .ohm.m                     : DeepRes     Resistivity
 SP         .mV                        : SP          Spontaneous Potential
~A  DEPTH     BS       CAL       CALI      CALX       DT        GR       M1R1      M1R3      M1R9      M2R1      M2R3      M2R9      NPHI      RHOB       RM        RS        RT        SP    
# ...
9840.0000    8.5000 -999.0000 -999.0000 -999.0000   85.5934  122.8062 -999.0000 -999.0000 -999.0000    2.2420    6.5670    7.2850    0.3786    2.3510    6.5670    2.2420    7.2850 -999.0000 
9840.5000    8.5000 -999.0000 -999.0000 -999.0000   88.5445  126.8047 -999.0000 -999.0000 -999.0000    2.1860    5.9790    6.6440    0.4154    2.3180    5.9790    2.1860    6.6440 -999.0000 
9841.0000    8.5000 -999.0000 -999.0000 -999.0000   88.4214  129.8754 -999.0000 -999.0000 -999.0000    2.3220    5.9630    6.6460    0.4045    2.3040    5.9630    2.3220    6.6460 -999.0000 
9841.5000    8.5000 -999.0000 -999.0000 -999.0000   88.1719  131.3258 -999.0000 -999.0000 -999.0000    2.4540    6.0470    6.7790    0.3968    2.3000    6.0470    2.4540    6.7790 -999.0000 
9842.0000    8.5000 -999.0000 -999.0000 -999.0000   87.8825  131.9682 -999.0000 -999.0000 -999.0000    2.4600    5.9700    6.7440    0.3894    2.2960    5.9700    2.4600    6.7440 -999.0000 
9842.5000    8.5000 -999.0000 -999.0000 -999.0000   87.3566  131.1022 -999.0000 -999.0000 -999.0000    2.4750    6.0530    6.8990    0.3817    2.2980    6.0530    2.4750    6.8990 -999.0000 
9843.0000    8.5000 -999.0000 -999.0000 -999.0000   86.6370  125.7628 -999.0000 -999.0000 -999.0000    2.6410    6.5490    7.5200    0.3758    2.2990    6.5490    2.6410    7.5200 -999.0000 
9843.5000    8.5000 -999.0000 -999.0000 -999.0000   85.7461  114.5719 -999.0000 -999.0000 -999.0000    3.0470    7.5780    8.7310    0.3673    2.2800    7.5780    3.0470    8.7310 -999.0000 
9844.0000    8.5000 -999.0000 -999.0000 -999.0000   84.8057  101.5745 -999.0000 -999.0000 -999.0000    3.9120    9.5370   10.9640    0.3564    2.2500    9.5370    3.9120   10.9640 -999.0000 
9844.5000    8.5000 -999.0000 -999.0000 -999.0000   84.7333   94.4298 -999.0000 -999.0000 -999.0000    4.9770   11.4950   13.1210    0.3579    2.2320   11.4950    4.9770   13.1210 -999.0000 
9845.0000    8.5000 -999.0000 -999.0000 -999.0000   85.7927   97.8989 -999.0000 -999.0000 -999.0000    4.6910   10.3720   11.7340    0.3740    2.2360   10.3720    4.6910   11.7340 -999.0000 
9845.5000    8.5000 -999.0000 -999.0000 -999.0000   85.2668  109.9902 -999.0000 -999.0000 -999.0000    3.5130    7.8380    8.7960    0.3634    2.2770    7.8380    3.5130    8.7960 -999.0000 
9846.0000    8.5000 -999.0000 -999.0000 -999.0000   81.9824  124.0626 -999.0000 -999.0000 -999.0000    2.8640    6.9470    7.7630    0.3085    2.3410    6.9470    2.8640    7.7630 -999.0000 
9846.5000    8.5000 -999.0000 -999.0000 -999.0000   79.4461  133.6913 -999.0000 -999.0000 -999.0000    2.7180    7.3980    8.2700    0.2658    2.3850    7.3980    2.7180    8.2700 -999.0000 
9847.0000    8.5000 -999.0000 -999.0000 -999.0000   79.2783  135.1394 -999.0000 -999.0000 -999.0000    2.8040    8.3610    9.4010    0.2668    2.4020    8.3610    2.8040    9.4010 -999.0000 
9847.5000    8.5000 -999.0000 -999.0000 -999.0000   80.8391  127.0660 -999.0000 -999.0000 -999.0000    3.0690    9.2970   10.5580    0.3198    2.4160    9.2970    3.0690   10.5580 -999.0000 
9848.0000    8.5000 -999.0000 -999.0000 -999.0000   80.2575  110.9762 -999.0000 -999.0000 -999.0000    3.8320   10.6940   12.2920    0.3327    2.4300   10.6940    3.8320   12.2920 -999.0000 
9848.5000    8.5000 -999.0000 -999.0000 -999.0000   75.0497   92.3850 -999.0000 -999.0000 -999.0000    6.3120   14.7480   17.1420    0.2658    2.4460   14.7480    6.3120   17.1420 -999.0000 
9849.0000    8.5000 -999.0000 -999.0000 -999.0000   71.3885   79.1913 -999.0000 -999.0000 -999.0000   15.1590   26.3940   30.7050    0.2202    2.4610   26.3940   15.1590   30.7050 -999.0000 
9849.5000    8.5000 -999.0000 -999.0000 -999.0000   71.4067   78.0262 -999.0000 -999.0000 -999.0000   24.8730   32.6830   37.8900    0.2260    2.4730   32.6830   24.8730   37.8900 -999.0000 
9850.0000    8.5000 -999.0000 -999.0000 -999.0000   72.2929   90.7611 -999.0000 -999.0000 -999.0000   17.8820   22.4390   26.0800    0.2259    2.4690   22.4390   17.8820   26.0800 -999.0000 
9850.5000    8.5000 -999.0000 -999.0000 -999.0000   71.7915  112.0317 -999.0000 -999.0000 -999.0000    8.2890   11.7170   13.5300    0.1906    2.4640   11.7170    8.2890   13.5300 -999.0000 
9851.0000    8.5000 -999.0000 -999.0000 -999.0000   71.5440  130.9413 -999.0000 -999.0000 -999.0000    5.5220    9.1630   10.4220    0.1626    2.4590    9.1630    5.5220   10.4220 -999.0000 
9851.5000    8.5000 -999.0000 -999.0000 -999.0000   72.7910  138.0972 -999.0000 -999.0000 -999.0000    4.7440    8.8260    9.8870    0.1720    2.4450    8.8260    4.7440    9.8870 -999.0000 
9852.0000    8.5000 -999.0000 -999.0000 -999.0000   76.8760  132.2307 -999.0000 -999.0000 -999.0000    4.3510    8.5180    9.4260    0.2462    2.4270    8.5180    4.3510    9.4260 -999.0000 
9852.5000    8.5000 -999.0000 -999.0000 -999.0000   80.4184  120.4041 -999.0000 -999.0000 -999.0000    3.9280    7.8350    8.6100    0.3230    2.4250    7.8350    3.9280    8.6100 -999.0000 
9853.0000    8.5000 -999.0000 -999.0000 -999.0000   78.5286  111.9165 -999.0000 -999.0000 -999.0000    3.8690    7.8210    8.5720    0.3008    2.4310    7.8210    3.8690    8.5720 -999.0000 
9853.5000    8.5000 -999.0000 -999.0000 -999.0000   75.4764  112.1458 -999.0000 -999.0000 -999.0000    4.2160    8.5630    9.3850    0.2500    2.4440    8.5630    4.2160    9.3850 -999.0000 
9854.0000    8.5000 -999.0000 -999.0000 -999.0000   75.3490  121.4962 -999.0000 -999.0000 -999.0000    4.6160    9.0430    9.9220    0.2462    2.4710    9.0430    4.6160    9.9220 -999.0000 
9854.5000    8.5000 -999.0000 -999.0000 -999.0000   77.1444  136.9333 -999.0000 -999.0000 -999.0000    4.8030    8.6190    9.4560    0.2690    2.4950    8.6190    4.8030    9.4560 -999.0000 
9855.0000    8.5000 -999.0000 -999.0000 -999.0000   78.9733  152.7847 -999.0000 -999.0000 -999.0000    4.8980    7.9310    8.6870    0.2933    2.5230    7.9310    4.8980    8.6870 -999.0000 
9855.5000    8.5000 -999.0000 -999.0000 -999.0000   76.6367  163.0399 -999.0000 -999.0000 -999.0000    4.9450    7.4410    8.1210    0.2887    2.5510    7.4410    4.9450    8.1210 -999.0000 
9856.0000    8.5000 -999.0000 -999.0000 -999.0000   74.5289  165.4991 -999.0000 -999.0000 -999.0000    5.0060    7.3110    7.9350    0.2652    2.5710    7.3110    5.0060    7.9350 -999.0000 
9856.5000    8.5000 -999.0000 -999.0000 -999.0000   74.1518  162.5241 -999.0000 -999.0000 -999.0000    5.3100    7.7340    8.3360    0.2492    2.5710    7.7340    5.3100    8.3360 -999.0000 
9857.0000    8.5000 -999.0000 -999.0000 -999.0000   75.0746  157.6869 -999.0000 -999.0000 -999.0000    5.7920    8.4670    9.0570    0.2488    2.5650    8.4670    5.7920    9.0570 -999.0000 
9857.5000    8.5000 -999.0000 -999.0000 -999.0000   76.1885  152.8702 -999.0000 -999.0000 -999.0000    5.8870    8.6080    9.1350    0.2523    2.5500    8.6080    5.8870    9.1350 -999.0000 
9858.0000    8.5000 -999.0000 -999.0000 -999.0000   75.9777  148.8227 -999.0000 -999.0000 -999.0000    5.4370    7.9650    8.3880    0.2487    2.5370    7.9650    5.4370    8.3880 -999.0000 
9858.5000    8.5000 -999.0000 -999.0000 -999.0000   75.3425  146.5393 -999.0000 -999.0000 -999.0000    4.9810    7.3560    7.6900    0.2392    2.5350    7.3560    4.9810    7.6900 -999.0000 
9859.0000    8.5000 -999.0000 -999.0000 -999.0000   75.2314  146.9706 -999.0000 -999.0000 -999.0000    4.8080    7.1990    7.4740    0.2367    2.5350    7.1990    4.8080    7.4740 -999.0000 
9859.5000    8.5000 -999.0000 -999.0000 -999.0000   75.9198  149.6032 -999.0000 -999.0000 -999.0000    4.7540    7.2260    7.4570    0.2471    2.5380    7.2260    4.7540    7.4570 -999.0000 
9860.0000    8.5000 -999.0000 -999.0000 -999.0000   76.9973  152.0327 -999.0000 -999.0000 -999.0000    4.6410    7.1710    7.3620    0.2675    2.5490    7.1710    4.6410    7.3620 -999.0000 
9860.5000    8.5000 -999.0000 -999.0000 -999.0000   77.6414  151.7861 -999.0000 -999.0000 -999.0000    4.5440    7.1470    7.3080    0.2818    2.5560    7.1470    4.5440    7.3080 -999.0000 
