~VERSION INFORMATION
 VERS.                 2.0:   CWLS LOG ASCII STANDARD - VERSION 2.0
 WRAP.                  NO:   SINGLE LINE PER DEPTH STEP
 CREA.                 2/17/2020 5:24:17 PM
#CREATED USING DSPetro VERSION 10ep.4.04 BY HB79161 ON 2/17/2020 5:24:17 PM
~WELL INFORMATION
#MNEM.UNIT       DATA                          DESCRIPTION MNEMONIC
#---------      ---------------------------   --------------------------
 STRT    .FT        9000.0000                 : START DEPTH
 STOP    .FT        10370.0000                : STOP DEPTH
 STEP    .FT        0.5000                    : STEP VALUE
 NULL    .      -999.0000                     : NULL VALUE
 DATE    .      2/17/2020                     : LAS file Creation Date
 WELL   .      LGAE-040                       : Well Name
 COMP   .      PETROPRODUCCION                : Company
 FLD    .      LAGO AGRIO                     : Field
 STATE  .      SUCUMBIOS                      : State
 COUNT  .      ECUADOR                        : Country
 UWI    .      LGAE-040                       : Unique Well Identifier (UWI)
 LOC    .      TWP        - Range       - Sec : Location
 PDAT   .      GR                             : Permanent Datum
 LGMEA  .      KB                             : Log Measured from
 DRMEA  .      KB                             : Drill Measured From
 KB     .      987                            : KB Elevation
 DF     .      -999.2500                      : DF Elevation
 GL     .      -999.2500                      : GL Elevation
 RWS    .      0                              : Def_Rw
 WST    .      0                              : Def_Rwt
 UTMZ   .      31                             : UTM Zone
 CNTY   .      LA                             : County
 PROV   .      SUCUMBIOS                      : Province
 MDEC   .      0                              : Magnetic Declination
 SRVC   .      SCH                            : Contractor
 GDAT   .      WGS 84                         : Geodatum
 LONG   .      0                              : Longitude
 LATI   .      0                              : Latitude
 COORDIN.                                     : Grid System
 XCOORD .                                     : X or East-West Coordinate
 YCOORD .                                     : Y or North-South Coordinate
~CURVE INFORMATION
#MNEM              UNIT       API CODE   Curve Type Comments
#----------  --------------- ----------  ---------- -----------
 DEPTH      .FT                        : Depth       
 BS         .inches                    : BitSize     Bit Size
 CAL        .inches                    : Caliper     
 CALI       .inch                      : Caliper     Caliper
 CALX       .inch                      : Caliper     
 DT         .us/ft                     : Sonic       
 GR         .API                       : GammaRay    GR = 0.995958 x GR + -0.122242
 M1R1       .ohm.m                     : ShalRes     
 M1R3       .ohm.m                     : MedRes      
 M1R9       .ohm.m                     : MedRes      
 M2R1       .ohm.m                     : ShalRes     
 M2R3       .ohm.m                     : MedRes      
 M2R9       .ohm.m                     : MedRes      
 NPHI       .v/v                       : Neutron     
 RHOB       .gm/cc                     : Density     Bulk Density
 RM         .ohm.m                     :             
 RS         .ohm.m                     : ShalRes     
 RT         .ohm.m                     : DeepRes     Resistivity
 SP         .mV                        : SP          Spontaneous Potential
~A  DEPTH     BS       CAL       CALI      CALX       DT        GR       M1R1      M1R3      M1R9      M2R1      M2R3      M2R9      NPHI      RHOB       RM        RS        RT        SP    
# ...
9483.0000    8.5000 -999.0000 -999.0000 -999.0000   80.3733  132.6130 -999.0000 -999.0000 -999.0000    2.2330    2.9560    3.1090    0.2680    2.4490    2.9560    2.2330    3.1090 -999.0000 
9483.5000    8.5000 -999.0000 -999.0000 -999.0000   79.0805  126.9222 -999.0000 -999.0000 -999.0000    2.3060    2.9610    3.1000    0.2576    2.4570    2.9610    2.3060    3.1000 -999.0000 
9484.0000    8.5000 -999.0000 -999.0000 -999.0000   78.4630  122.4627 -999.0000 -999.0000 -999.0000    2.3190    2.9090    3.0300    0.2558    2.4610    2.9090    2.3190    3.0300 -999.0000 
9484.5000    8.5000 -999.0000 -999.0000 -999.0000   78.4156  121.6959 -999.0000 -999.0000 -999.0000    2.2690    2.8320    2.9310    0.2570    2.4630    2.8320    2.2690    2.9310 -999.0000 
9485.0000    8.5000 -999.0000 -999.0000 -999.0000   79.0579  124.8990 -999.0000 -999.0000 -999.0000    2.1330    2.6810    2.7580    0.2608    2.4570    2.6810    2.1330    2.7580 -999.0000 
9485.5000    8.5000 -999.0000 -999.0000 -999.0000   80.0040  130.7803 -999.0000 -999.0000 -999.0000    2.0080    2.5390    2.5930    0.2653    2.4510    2.5390    2.0080    2.5930 -999.0000 
9486.0000    8.5000 -999.0000 -999.0000 -999.0000   80.7406  136.4574 -999.0000 -999.0000 -999.0000    1.9940    2.5100    2.5470    0.2657    2.4430    2.5100    1.9940    2.5470 -999.0000 
9486.5000    8.5000 -999.0000 -999.0000 -999.0000   80.9492  138.7294 -999.0000 -999.0000 -999.0000    2.0740    2.5670    2.5890    0.2630    2.4360    2.5670    2.0740    2.5890 -999.0000 
9487.0000    8.5000 -999.0000 -999.0000 -999.0000   80.8242  136.6514 -999.0000 -999.0000 -999.0000    2.1520    2.6040    2.6120    0.2617    2.4280    2.6040    2.1520    2.6120 -999.0000 
9487.5000    8.5000 -999.0000 -999.0000 -999.0000   80.5814  131.6385 -999.0000 -999.0000 -999.0000    2.1940    2.6040    2.6010    0.2642    2.4220    2.6040    2.1940    2.6010 -999.0000 
9488.0000    8.5000 -999.0000 -999.0000 -999.0000   80.1439  124.5704 -999.0000 -999.0000 -999.0000    2.2540    2.6410    2.6310    0.2672    2.4170    2.6410    2.2540    2.6310 -999.0000 
9488.5000    8.5000 -999.0000 -999.0000 -999.0000   78.9855  115.5350 -999.0000 -999.0000 -999.0000    2.3360    2.7120    2.6980    0.2645    2.4230    2.7120    2.3360    2.6980 -999.0000 
9489.0000    8.5000 -999.0000 -999.0000 -999.0000   77.6867  107.4398 -999.0000 -999.0000 -999.0000    2.3860    2.7490    2.7330    0.2600    2.4360    2.7490    2.3860    2.7330 -999.0000 
9489.5000    8.5000 -999.0000 -999.0000 -999.0000   76.8752  105.5455 -999.0000 -999.0000 -999.0000    2.3610    2.7120    2.6950    0.2546    2.4530    2.7120    2.3610    2.6950 -999.0000 
9490.0000    8.5000 -999.0000 -999.0000 -999.0000   75.9353  111.6357 -999.0000 -999.0000 -999.0000    2.2260    2.5610    2.5430    0.2268    2.4530    2.5610    2.2260    2.5430 -999.0000 
9490.5000    8.5000 -999.0000 -999.0000 -999.0000   74.1837  121.7906 -999.0000 -999.0000 -999.0000    2.0440    2.3570    2.3390    0.1785    2.4570    2.3570    2.0440    2.3390 -999.0000 
9491.0000    8.5000 -999.0000 -999.0000 -999.0000   73.5232  130.8100 -999.0000 -999.0000 -999.0000    1.9110    2.2090    2.1920    0.1512    2.4590    2.2090    1.9110    2.1920 -999.0000 
9491.5000    8.5000 -999.0000 -999.0000 -999.0000   74.4162  135.8640 -999.0000 -999.0000 -999.0000    1.7950    2.0880    2.0750    0.1600    2.4640    2.0880    1.7950    2.0750 -999.0000 
9492.0000    8.5000 -999.0000 -999.0000 -999.0000   77.6049  136.5613 -999.0000 -999.0000 -999.0000    1.6710    1.9780    1.9720    0.2176    2.4680    1.9780    1.6710    1.9720 -999.0000 
9492.5000    8.5000 -999.0000 -999.0000 -999.0000   81.3633  134.2916 -999.0000 -999.0000 -999.0000    1.6270    1.9790    1.9850    0.2856    2.4570    1.9790    1.6270    1.9850 -999.0000 
9493.0000    8.5000 -999.0000 -999.0000 -999.0000   83.5683  131.0999 -999.0000 -999.0000 -999.0000    1.7040    2.1380    2.1650    0.3214    2.4290    2.1380    1.7040    2.1650 -999.0000 
9493.5000    8.5000 -999.0000 -999.0000 -999.0000   84.5654  127.5373 -999.0000 -999.0000 -999.0000    1.8480    2.3890    2.4510    0.3385    2.4080    2.3890    1.8480    2.4510 -999.0000 
9494.0000    8.5000 -999.0000 -999.0000 -999.0000   84.4388  122.6704 -999.0000 -999.0000 -999.0000    1.9750    2.6290    2.7360    0.3418    2.3990    2.6290    1.9750    2.7360 -999.0000 
9494.5000    8.5000 -999.0000 -999.0000 -999.0000   82.2256  116.7628 -999.0000 -999.0000 -999.0000    2.1580    2.9680    3.1320    0.3152    2.4070    2.9680    2.1580    3.1320 -999.0000 
9495.0000    8.5000 -999.0000 -999.0000 -999.0000   79.0351  111.9473 -999.0000 -999.0000 -999.0000    2.4870    3.5240    3.7550    0.2742    2.4300    3.5240    2.4870    3.7550 -999.0000 
9495.5000    8.5000 -999.0000 -999.0000 -999.0000   77.6062  109.6582 -999.0000 -999.0000 -999.0000    2.6340    3.7350    3.9910    0.2570    2.4430    3.7350    2.6340    3.9910 -999.0000 
9496.0000    8.5000 -999.0000 -999.0000 -999.0000   77.6840  109.4573 -999.0000 -999.0000 -999.0000    2.2900    3.1300    3.3340    0.2622    2.4530    3.1300    2.2900    3.3340 -999.0000 
9496.5000    8.5000 -999.0000 -999.0000 -999.0000   78.1991  110.0872 -999.0000 -999.0000 -999.0000    1.8840    2.3980    2.5310    0.2738    2.4630    2.3980    1.8840    2.5310 -999.0000 
9497.0000    8.5000 -999.0000 -999.0000 -999.0000   77.7595  110.4718 -999.0000 -999.0000 -999.0000    1.7230    2.0390    2.1270    0.2676    2.4700    2.0390    1.7230    2.1270 -999.0000 
9497.5000    8.5000 -999.0000 -999.0000 -999.0000   76.9043  110.6555 -999.0000 -999.0000 -999.0000    1.6440    1.8480    1.9060    0.2553    2.4800    1.8480    1.6440    1.9060 -999.0000 
9498.0000    8.5000 -999.0000 -999.0000 -999.0000   77.3591  111.7749 -999.0000 -999.0000 -999.0000    1.4990    1.6520    1.6890    0.2615    2.4800    1.6520    1.4990    1.6890 -999.0000 
9498.5000    8.5000 -999.0000 -999.0000 -999.0000   79.3744  114.0743 -999.0000 -999.0000 -999.0000    1.4100    1.5690    1.5960    0.2920    2.4750    1.5690    1.4100    1.5960 -999.0000 
9499.0000    8.5000 -999.0000 -999.0000 -999.0000   81.3262  116.0998 -999.0000 -999.0000 -999.0000    1.4260    1.6260    1.6490    0.3215    2.4690    1.6260    1.4260    1.6490 -999.0000 
9499.5000    8.5000 -999.0000 -999.0000 -999.0000   82.2222  116.3874 -999.0000 -999.0000 -999.0000    1.4740    1.7180    1.7420    0.3306    2.4500    1.7180    1.4740    1.7420 -999.0000 
9500.0000    8.5000 -999.0000 -999.0000 -999.0000   81.5620  114.6631 -999.0000 -999.0000 -999.0000    1.4960    1.7600    1.7830    0.3204    2.4460    1.7600    1.4960    1.7830 -999.0000 
9500.5000    8.5000 -999.0000 -999.0000 -999.0000   80.4813  111.8183 -999.0000 -999.0000 -999.0000    1.5010    1.7640    1.7870    0.3115    2.4620    1.7640    1.5010    1.7870 -999.0000 
9501.0000    8.5000 -999.0000 -999.0000 -999.0000   79.9822  109.4813 -999.0000 -999.0000 -999.0000    1.5090    1.7670    1.7880    0.3108    2.4740    1.7670    1.5090    1.7880 -999.0000 
9501.5000    8.5000 -999.0000 -999.0000 -999.0000   80.4217  109.1458 -999.0000 -999.0000 -999.0000    1.5120    1.7680    1.7870    0.3176    2.4690    1.7680    1.5120    1.7870 -999.0000 
9502.0000    8.5000 -999.0000 -999.0000 -999.0000   81.0032  110.6487 -999.0000 -999.0000 -999.0000    1.4930    1.7490    1.7630    0.3254    2.4690    1.7490    1.4930    1.7630 -999.0000 
9502.5000    8.5000 -999.0000 -999.0000 -999.0000   81.1241  112.3661 -999.0000 -999.0000 -999.0000    1.4580    1.7160    1.7260    0.3283    2.4800    1.7160    1.4580    1.7260 -999.0000 
9503.0000    8.5000 -999.0000 -999.0000 -999.0000   80.7884  113.4319 -999.0000 -999.0000 -999.0000    1.4320    1.6960    1.7030    0.3231    2.4880    1.6960    1.4320    1.7030 -999.0000 
9503.5000    8.5000 -999.0000 -999.0000 -999.0000   80.7366  114.4920 -999.0000 -999.0000 -999.0000    1.4360    1.7100    1.7150    0.3189    2.4840    1.7100    1.4360    1.7150 -999.0000 
