~VERSION INFORMATION
 VERS.                 2.0:   CWLS LOG ASCII STANDARD - VERSION 2.0
 WRAP.                  NO:   SINGLE LINE PER DEPTH STEP
 CREA.                 2/17/2020 5:24:17 PM
#CREATED USING DSPetro VERSION 10ep.4.04 BY HB79161 ON 2/17/2020 5:24:17 PM
~WELL INFORMATION
#MNEM.UNIT       DATA                          DESCRIPTION MNEMONIC
#---------      ---------------------------   --------------------------
 STRT    .FT        9000.0000                 : START DEPTH
 STOP    .FT        10370.0000                : STOP DEPTH
 STEP    .FT        0.5000                    : STEP VALUE
 NULL    .      -999.0000                     : NULL VALUE
 DATE    .      2/17/2020                     : LAS file Creation Date
 WELL   .      LGAE-040                       : Well Name
 COMP   .      PETROPRODUCCION                : Company
 FLD    .      LAGO AGRIO                     : Field
 STATE  .      SUCUMBIOS                      : State
 COUNT  .      ECUADOR                        : Country
 UWI    .      LGAE-040                       : Unique Well Identifier (UWI)
 LOC    .      TWP        - Range       - Sec : Location
 PDAT   .      GR                             : Permanent Datum
 LGMEA  .      KB                             : Log Measured from
 DRMEA  .      KB                             : Drill Measured From
 KB     .      987                            : KB Elevation
 DF     .      -999.2500                      : DF Elevation
 GL     .      -999.2500                      : GL Elevation
 RWS    .      0                              : Def_Rw
 WST    .      0                              : Def_Rwt
 UTMZ   .      31                             : UTM Zone
 CNTY   .      LA                             : County
 PROV   .      SUCUMBIOS                      : Province
 MDEC   .      0                              : Magnetic Declination
 SRVC   .      SCH                            : Contractor
 GDAT   .      WGS 84                         : Geodatum
 LONG   .      0                              : Longitude
 LATI   .      0                              : Latitude
 COORDIN.                                     : Grid System
 XCOORD .                                     : X or East-West Coordinate
 YCOORD .                                     : Y or North-South Coordinate
~CURVE INFORMATION
#MNEM              UNIT       API CODE   Curve Type Comments
#----------  --------------- ----------  ---------- -----------
 DEPTH      .FT                        : Depth       
 BS         .inches                    : BitSize     Bit Size
 CAL        .inches                    : Caliper     
 CALI       .inch                      : Caliper     Caliper
 CALX       .inch                      : Caliper     
 DT         .us/ft                     : Sonic       
 GR         .API                       : GammaRay    GR = 0.995958 x GR + -0.122242
 M1R1       .ohm.m                     : ShalRes     
 M1R3       .ohm.m                     : MedRes      
 M1R9       .ohm.m                     : MedRes      
 M2R1       .ohm.m                     : ShalRes     
 M2R3       .ohm.m                     : MedRes      
 M2R9       .ohm.m                     : MedRes      
 NPHI       .v/v                       : Neutron     
 RHOB       .gm/cc                     : Density     Bulk Density
 RM         .ohm.m                     :             
 RS         .ohm.m                     : ShalRes     
 RT         .ohm.m                     : DeepRes     Resistivity
 SP         .mV                        : SP          Spontaneous Potential
~A  DEPTH     BS       CAL       CALI      CALX       DT        GR       M1R1      M1R3      M1R9      M2R1      M2R3      M2R9      NPHI      RHOB       RM        RS        RT        SP    
# ...
10008.0000    8.5000    8.9910    8.9910    8.9910   76.7010   85.3693 2959.8301  847.3880  786.8970  379.9720  340.2770  279.7210    0.1628    2.5050  340.2770  379.9720  279.7210  -17.4260 
10008.5000    8.5000    8.9910    8.9910    8.9910   78.0780   87.6436  104.6570  203.7100  203.7450  303.8020  255.7520  224.4590    0.1713    2.5020  255.7520  303.8020  224.4590  -17.9600 
10009.0000    8.5000    8.9980    8.9980    8.9980   77.7990   93.1290  163.2730  282.3350  285.9100  109.4900  140.8670  140.1120    0.1788    2.4940  140.8670  109.4900  140.1120  -18.0020 
10009.5000    8.5000    9.0110    9.0110    9.0110   75.7830   98.3120   90.9240  161.7500  161.2070   66.5390  107.0850  110.9500    0.1923    2.4640  107.0850   66.5390  110.9500  -18.7070 
10010.0000    8.5000    9.0250    9.0250    9.0250   72.5990   99.5992  191.5870  229.5580  241.3080   56.8160  106.7490  110.7090    0.2011    2.4380  106.7490   56.8160  110.7090  -19.8960 
10010.5000    8.5000    9.0390    9.0390    9.0390   69.5950   95.6360  448.2300  332.8270  389.4140   48.1150  100.1100  105.4510    0.2030    2.4270  100.1100   48.1150  105.4510  -22.3290 
10011.0000    8.5000    9.0340    9.0340    9.0340   67.5740   86.8254   59.4520   80.4980   78.3270   41.7790   89.6600   97.1750    0.2100    2.4240   89.6600   41.7790   97.1750  -24.3410 
10011.5000    8.5000    8.9880    8.9880    8.9880   66.1450   75.4917   26.5570   37.3600   35.5460   50.6740  103.0780  110.4430    0.1971    2.4320  103.0780   50.6740  110.4430  -26.0260 
10012.0000    8.5000    8.9230    8.9230    8.9230   64.3780   65.9896  113.2910  123.2450  122.9920  138.9650  237.4830  203.5520    0.1413    2.4620  237.4830  138.9650  203.5520  -28.8590 
10012.5000    8.5000    8.8830    8.8830    8.8830   62.2760   61.4194 1137.5270  460.4920  489.6860  704.2970  540.7670  316.1040    0.0884    2.4840  540.7670  704.2970  316.1040  -32.3940 
10013.0000    8.5000    8.8680    8.8680    8.8680   60.6070   60.4666 2055.2681 1306.8840 1271.6060  492.6280  490.5790  478.8850    0.0701    2.4910  490.5790  492.6280  478.8850  -36.4350 
10013.5000    8.5000    8.8550    8.8550    8.8550   59.8630   59.6016  333.6450  321.7120  314.7670  211.6460  213.7770  223.2650    0.0686    2.4920  213.7770  211.6460  223.2650  -39.2150 
10014.0000    8.5000    8.8370    8.8370    8.8370   59.6930   57.6217  219.8020  206.7730  211.9010  146.4460  148.1870  152.1130    0.0712    2.4880  148.1870  146.4460  152.1130  -38.6650 
10014.5000    8.5000    8.8260    8.8260    8.8260   59.5650   56.3927  624.9430  558.0180  541.1330  184.4710  185.2780  186.4180    0.0725    2.4840  185.2780  184.4710  186.4180  -33.2120 
10015.0000    8.5000    8.8220    8.8220    8.8220   59.3280   57.3216 1121.1510 1131.5660 1064.8550  381.6800  370.2960  358.8200    0.0727    2.4790  370.2960  381.6800  358.8200  -22.0180 
10015.5000    8.5000    8.8240    8.8240    8.8240   59.1780   58.8074  826.7320  806.8510  796.5180  630.8570  591.6090  556.3690    0.0713    2.4770  591.6090  630.8570  556.3690   -9.2980 
10016.0000    8.5000    8.8280    8.8280    8.8280   59.1880   58.3657  485.2240  489.2660  491.0480  699.1050  666.0520  638.6250    0.0697    2.4770  666.0520  699.1050  638.6250   -2.0830 
10016.5000    8.5000    8.8360    8.8360    8.8360   59.2990   55.8815  571.9220  625.3990  641.6910  420.4910  413.3580  407.8890    0.0692    2.4790  413.3580  420.4910  407.8890   -0.2170 
10017.0000    8.5000    8.8460    8.8460    8.8460   59.5340   53.4612 1520.1060 1257.1331 1222.5490  348.1360  340.6030  345.2350    0.0698    2.4810  340.6030  348.1360  345.2350    0.1400 
10017.5000    8.5000    8.8550    8.8550    8.8550   59.9380   52.8381  454.8720  722.5360  726.0640  595.4580  561.0540  549.2220    0.0703    2.4850  561.0540  595.4580  549.2220   -0.3870 
10018.0000    8.5000    8.8600    8.8600    8.8600   60.4650   53.3665  617.0450  938.2260  938.1890 1086.2770  938.6730  845.1750    0.0724    2.4920  938.6730 1086.2770  845.1750   -1.4790 
10018.5000    8.5000    8.8570    8.8570    8.8570   60.9300   52.7811 3239.1631 1452.2380 1559.5660  857.1180  795.7270  725.9220    0.0766    2.4960  795.7270  857.1180  725.9220   -2.8450 
10019.0000    8.5000    8.8500    8.8500    8.8500   61.2180   50.3345 1354.2600  964.2420 1043.8180  566.3350  559.2300  546.0490    0.0790    2.5000  559.2300  566.3350  546.0490   -4.1160 
10019.5000    8.5000    8.8400    8.8400    8.8400   61.3350   47.9484  275.9380  298.2420  283.1230  388.4160  389.7100  392.3690    0.0788    2.5000  389.7100  388.4160  392.3690   -4.3840 
10020.0000    8.5000    8.8300    8.8300    8.8300   61.3470   47.5969  387.2640  399.3320  420.4710  260.8230  261.5860  264.2430    0.0782    2.4870  261.5860  260.8230  264.2430   -3.7820 
10020.5000    8.5000    8.8240    8.8240    8.8240   61.4400   49.0747  342.2040  363.4110  372.7170  241.6380  242.9310  247.9320    0.0787    2.4750  242.9310  241.6380  247.9320   -2.6360 
10021.0000    8.5000    8.8230    8.8230    8.8230   61.8380   50.5639  282.6110  220.3690  213.6450  322.2470  317.2450  309.4820    0.0802    2.4670  317.2450  322.2470  309.4820   -1.3150 
10021.5000    8.5000    8.8230    8.8230    8.8230   62.6930   50.4338  268.8430  203.9560  205.0400  432.2520  382.4300  353.8640    0.0824    2.4620  382.4300  432.2520  353.8640   -0.2700 
10022.0000    8.5000    8.8260    8.8260    8.8260   63.6420   49.4695  324.4710  702.3620  578.4180  452.4460  363.1800  329.8370    0.0850    2.4540  363.1800  452.4460  329.8370    0.3200 
10022.5000    8.5000    8.8400    8.8400    8.8400   64.1710   51.9515  288.9070  453.7070  356.4410  310.0640  265.9910  248.4070    0.0877    2.4420  265.9910  310.0640  248.4070    0.8260 
10023.0000    8.5000    8.8680    8.8680    8.8680   64.3110   63.3433   60.0310   60.0890   63.0820  156.5980  152.1330  148.6010    0.0901    2.4350  152.1330  156.5980  148.6010    1.8270 
10023.5000    8.5000    8.9020    8.9020    8.9020   64.6910   85.4503   67.9580   73.4750   77.5090   88.3970   87.5010   87.2240    0.0900    2.4460   87.5010   88.3970   87.2240    4.6040 
10024.0000    8.5000    8.9240    8.9240    8.9240   65.8450  113.0062   87.8620  114.2130  112.7760   56.7710   56.8860   56.8890    0.0898    2.4720   56.8860   56.7710   56.8890   16.0520 
10024.5000    8.5000    8.9290    8.9290    8.9290   67.8180  135.9303   93.6010  125.7800  122.3900   42.5760   43.0370   42.9840    0.1064    2.4960   43.0370   42.5760   42.9840   19.4320 
10025.0000    8.5000    8.9340    8.9340    8.9340   70.1190  146.4811   73.0590   92.2210   94.1480   36.2200   38.0530   38.0000    0.1658    2.5110   38.0530   36.2200   38.0000   20.0710 
10025.5000    8.5000    8.9630    8.9630    8.9630   71.9720  144.7215   65.7430   74.4790   77.0200   33.1320   35.6890   35.6770    0.2420    2.5190   35.6890   33.1320   35.6770   19.5800 
10026.0000    8.5000    9.0160    9.0160    9.0160   72.9170  137.0919   88.8650   90.1730   90.7530   31.6370   34.2240   34.2910    0.2764    2.5270   34.2240   31.6370   34.2910   18.4320 
10026.5000    8.5000    9.0470    9.0470    9.0470   73.0310  130.7130   23.5370   23.1470   24.4600   32.7170   35.3420   35.6100    0.2810    2.5340   35.3420   32.7170   35.6100   17.1310 
10027.0000    8.5000    9.0310    9.0310    9.0310   72.4770  128.6909   27.2160   26.6290   27.5060   35.7900   39.3250   40.2600    0.2807    2.5330   39.3250   35.7900   40.2600   15.7280 
10027.5000    8.5000    9.0010    9.0010    9.0010   71.4250  128.6864   54.0670   52.0400   55.6330   40.1620   47.3480   49.1030    0.2722    2.5170   47.3480   40.1620   49.1030   15.3480 
10028.0000    8.5000    8.9890    8.9890    8.9890   70.1170  126.4555   40.1510   39.3740   41.4630   43.5480   57.5820   59.9760    0.2698    2.5060   57.5820   43.5480   59.9760   16.3510 
10028.5000    8.5000    8.9910    8.9910    8.9910   69.1500  122.1808   28.1420   28.5990   30.2800   36.4780   52.9930   55.6660    0.2661    2.5140   52.9930   36.4780   55.6660   17.2950 
